data/output/dynamic_analysis/data_throughput/per_pass_throughput.csv

Start_Time,End_Time,Duration_seconds,Ground_Station,Achievable_Data_Rate_(Gbps),Data_Transmitted_(Gbits)
2023-06-01 07:32:52,2023-06-01 07:37:53,301.0,Tenerife,0.018584880570411976,5.594049051694005
2023-06-02 07:19:23,2023-06-02 07:24:22,299.0,Tenerife,0.017559326532764492,5.250238633296584
2023-06-02 19:27:58,2023-06-02 19:31:27,209.0,Tenerife,0.06614123240919492,13.82351757352174
2023-06-03 07:06:07,2023-06-03 07:10:35,268.0,Tenerife,0.0571723470915624,15.322189020538724
2023-06-03 19:13:51,2023-06-03 19:18:27,276.0,Tenerife,0.06751542819346053,18.634258181395104
2023-06-04 06:53:12,2023-06-04 06:56:22,190.0,Tenerife,0.053575407866005446,10.179327494541035
2023-06-04 19:00:06,2023-06-04 19:05:08,302.0,Tenerife,0.023634992445529496,7.137767718549908
2023-06-05 18:46:36,2023-06-05 18:51:34,298.0,Tenerife,0.02837160654571276,8.454738750622402
2023-06-06 07:59:58,2023-06-06 08:03:27,209.0,Tenerife,0.04829796690081975,10.094275082271327
2023-06-06 18:33:22,2023-06-06 18:37:47,265.0,Tenerife,0.07631480593857005,20.223423573721064
2023-06-07 07:45:55,2023-06-07 07:50:30,275.0,Tenerife,0.04289522548047586,11.796187007130863
2023-06-07 18:20:30,2023-06-07 18:23:38,188.0,Tenerife,0.06846642763879401,12.871688396093274
2023-06-08 07:32:10,2023-06-08 07:37:11,301.0,Tenerife,0.014487058044110428,4.360604471277239
2023-06-09 07:18:38,2023-06-09 07:23:36,298.0,Tenerife,0.016341173616290956,4.869669737654705
2023-06-09 19:27:09,2023-06-09 19:30:42,213.0,Tenerife,0.0871659733031314,18.56635231356699
2023-06-10 07:05:19,2023-06-10 07:09:44,265.0,Tenerife,0.07514632480475494,19.91377607326006
2023-06-10 19:13:00,2023-06-10 19:17:38,278.0,Tenerife,0.05830353126949362,16.208381692919225
2023-06-11 06:52:23,2023-06-11 06:55:26,183.0,Tenerife,0.07751776059894355,14.185750189606669
2023-06-11 18:59:12,2023-06-11 19:04:15,303.0,Tenerife,0.011229662290808663,3.402587674115025
2023-06-12 18:45:40,2023-06-12 18:50:37,297.0,Tenerife,0.039084458071099476,11.608084047116545
2023-06-13 07:58:57,2023-06-13 08:02:31,214.0,Tenerife,0.06419759774528727,13.738285917491476
2023-06-13 18:32:24,2023-06-13 18:36:46,262.0,Tenerife,0.10212413913857542,26.75652445430676
2023-06-14 07:44:52,2023-06-14 07:49:29,277.0,Tenerife,0.044027462217981435,12.195607034380858
2023-06-14 18:19:32,2023-06-14 18:22:32,180.0,Tenerife,0.08115905762617183,14.60863037271093
2023-06-15 07:31:05,2023-06-15 07:36:07,302.0,Tenerife,0.019866893942451943,5.999801970620486
2023-06-16 07:17:31,2023-06-16 07:22:28,297.0,Tenerife,0.02228133912495687,6.61755772011219
2023-06-16 19:25:56,2023-06-16 19:29:35,219.0,Tenerife,0.060665548403670444,13.285755100403827
2023-06-17 07:04:10,2023-06-17 07:08:31,261.0,Tenerife,0.10589263095264263,27.637976678639728
2023-06-17 19:11:46,2023-06-17 19:16:27,281.0,Tenerife,0.05926872439013199,16.65451155362709
2023-06-18 06:51:14,2023-06-18 06:54:07,173.0,Tenerife,0.07721593492148485,13.358356741416877
2023-06-18 18:57:56,2023-06-18 19:02:59,303.0,Tenerife,0.008939474008853273,2.7086606246825418
2023-06-19 18:44:22,2023-06-19 18:49:18,296.0,Tenerife,0.04327195424938332,12.808498457817462
2023-06-20 07:57:33,2023-06-20 08:01:14,221.0,Tenerife,0.08135091768173966,17.978552807664464
2023-06-20 18:31:04,2023-06-20 18:35:21,257.0,Tenerife,0.07639760400471607,19.63418422921203
2023-06-21 07:43:27,2023-06-21 07:48:07,280.0,Tenerife,0.05552882570657596,15.548071197841269
2023-06-21 18:18:13,2023-06-21 18:21:01,168.0,Tenerife,0.048228405549365035,8.102372132293326
2023-06-22 07:29:37,2023-06-22 07:34:40,303.0,Tenerife,0.011746144663900088,3.559081833161727
2023-06-22 19:39:23,2023-06-22 19:40:30,67.0,Tenerife,0.09446149186537361,6.328919954980032
2023-06-23 07:16:01,2023-06-23 07:20:56,295.0,Tenerife,0.023629319672835054,6.970649303486342
2023-06-23 19:24:19,2023-06-23 19:28:07,228.0,Tenerife,0.07819458724575497,17.828365892032135
2023-06-24 07:02:39,2023-06-24 07:06:54,255.0,Tenerife,0.06113334644324915,15.589003343028534
2023-06-24 19:10:09,2023-06-24 19:14:53,284.0,Tenerife,0.07988221728350844,22.6865497085164
2023-06-25 06:49:45,2023-06-25 06:52:22,157.0,Tenerife,0.08306325664221466,13.040931292827702
2023-06-25 18:56:18,2023-06-25 19:01:21,303.0,Tenerife,0.006225531968909712,1.8863361865796429
2023-06-26 08:10:31,2023-06-26 08:12:06,95.0,Tenerife,0.08429087377846334,8.007633008954016
2023-06-26 18:42:42,2023-06-26 18:47:35,293.0,Tenerife,0.038508680942233336,11.283043516074368
2023-06-27 07:55:45,2023-06-27 07:59:36,231.0,Tenerife,0.07387890791658949,17.066027728732173
2023-06-27 18:29:24,2023-06-27 18:33:33,249.0,Tenerife,0.07609104129556242,18.946669282595042
2023-06-28 07:41:39,2023-06-28 07:46:23,284.0,Tenerife,0.06958033655140622,19.760815580599367
2023-06-28 18:16:35,2023-06-28 18:19:04,149.0,Tenerife,0.12167480101783092,18.129545351656805
2023-06-29 07:27:48,2023-06-29 07:32:51,303.0,Tenerife,0.005735818287493293,1.737952941110468
2023-06-29 19:37:12,2023-06-29 19:38:58,106.0,Tenerife,0.09748954939191294,10.33389223554277
2023-06-30 07:14:10,2023-06-30 07:19:02,292.0,Tenerife,0.03690875664587853,10.777356940596531
2023-06-30 19:22:20,2023-06-30 19:26:18,238.0,Tenerife,0.10454826295470103,24.882486583218846
2023-07-01 07:00:47,2023-07-01 07:04:54,247.0,Tenerife,0.07640855521785665,18.872913138810592
2023-07-01 19:08:09,2023-07-01 19:12:58,289.0,Tenerife,0.028342529447950578,8.190991010457717
2023-07-02 06:47:57,2023-07-02 06:50:11,134.0,Tenerife,0.10346967501702678,13.86493645228159
2023-07-02 18:54:17,2023-07-02 18:59:21,304.0,Tenerife,0.0038787214049712934,1.179131307111273
2023-07-03 08:08:13,2023-07-03 08:10:20,127.0,Tenerife,0.07446410037075858,9.45694074708634
2023-07-03 18:40:41,2023-07-03 18:45:29,288.0,Tenerife,0.04324331545399654,12.454074850751002
2023-07-04 07:53:35,2023-07-04 07:57:36,241.0,Tenerife,0.060418303365993464,14.560811111204425
2023-07-04 18:27:22,2023-07-04 18:31:22,240.0,Tenerife,0.07220788351127891,17.32989204270694
2023-07-05 07:39:28,2023-07-05 07:44:17,289.0,Tenerife,0.03577646759052802,10.339399133662598
2023-07-05 18:14:39,2023-07-05 18:16:41,122.0,Tenerife,0.10503659642726804,12.8144647641267
2023-07-06 07:25:36,2023-07-06 07:30:39,303.0,Tenerife,0.00638722843335227,1.935330215305738
2023-07-06 19:34:42,2023-07-06 19:37:00,138.0,Tenerife,0.08265450428413132,11.406321591210121
2023-07-07 07:11:57,2023-07-07 07:16:44,287.0,Tenerife,0.049153619609919603,14.107088828046924
2023-07-07 19:19:58,2023-07-07 19:24:06,248.0,Tenerife,0.0742024452115376,18.402206412461325
2023-07-08 06:58:34,2023-07-08 07:02:30,236.0,Tenerife,0.06823029147602545,16.102348788342006
2023-07-08 19:05:47,2023-07-08 19:10:40,293.0,Tenerife,0.028991663567945882,8.494557425408145
2023-07-09 06:45:54,2023-07-09 06:47:30,96.0,Tenerife,0.08617002311168807,8.272322218722055
2023-07-09 18:51:55,2023-07-09 18:56:57,302.0,Tenerife,0.007846333307625505,2.3695926589029024
2023-07-10 08:05:35,2023-07-10 08:08:11,156.0,Tenerife,0.13863135114502062,21.626490778623218
2023-07-10 18:38:17,2023-07-10 18:43:00,283.0,Tenerife,0.050799383863404025,14.37622563334334
2023-07-11 07:51:02,2023-07-11 07:55:14,252.0,Tenerife,0.09120109481775253,22.982675894073637
2023-07-11 18:25:00,2023-07-11 18:28:46,226.0,Tenerife,0.07233008980692678,16.346600296365448
2023-07-12 07:36:54,2023-07-12 07:41:48,294.0,Tenerife,0.02188986483471771,6.435620261407006
2023-07-12 18:12:30,2023-07-12 18:13:46,76.0,Tenerife,0.08525853935747486,6.47964899116809
2023-07-13 07:23:02,2023-07-13 07:28:04,302.0,Tenerife,0.008992727225915329,2.7158036222264297
2023-07-13 19:31:51,2023-07-13 19:34:38,167.0,Tenerife,0.08179101500577743,13.659099505964832
2023-07-14 07:09:22,2023-07-14 07:14:03,281.0,Tenerife,0.0677961228128445,19.050710510409306
2023-07-14 19:17:13,2023-07-14 19:21:32,259.0,Tenerife,0.05661257476042512,14.662656862950106
2023-07-15 06:56:01,2023-07-15 06:59:41,220.0,Tenerife,0.09773342412074235,21.501353306563317
2023-07-15 19:03:03,2023-07-15 19:07:59,296.0,Tenerife,0.029224505852454605,8.650453732326563
2023-07-16 18:49:10,2023-07-16 18:54:11,301.0,Tenerife,0.013572023850898443,4.0851791791204315
2023-07-17 08:02:35,2023-07-17 08:05:37,182.0,Tenerife,0.08899452645681347,16.19700381514005
2023-07-17 18:35:33,2023-07-17 18:40:08,275.0,Tenerife,0.06816323490892096,18.74488959995326
2023-07-18 07:48:06,2023-07-18 07:52:30,264.0,Tenerife,0.06765089501258628,17.859836283322778
2023-07-18 18:22:17,2023-07-18 18:25:46,209.0,Tenerife,0.08268707846892563,17.281599400005454
2023-07-19 07:33:59,2023-07-19 07:38:57,298.0,Tenerife,0.02604263340270173,7.760704754005115
2023-07-20 07:20:06,2023-07-20 07:25:07,301.0,Tenerife,0.014095477561373682,4.242738745973479
2023-07-20 19:28:39,2023-07-20 19:31:52,193.0,Tenerife,0.0668283610708941,12.897873686682562
2023-07-21 07:06:26,2023-07-21 07:10:59,273.0,Tenerife,0.05385309371155804,14.701894583255344
2023-07-21 19:14:05,2023-07-21 19:18:35,270.0,Tenerife,0.062194007310179406,16.79238197374844
2023-07-22 06:53:08,2023-07-22 06:56:26,198.0,Tenerife,0.0720471778479893,14.26534121390188
2023-07-22 18:59:56,2023-07-22 19:04:56,300.0,Tenerife,0.022919841809014206,6.875952542704262
2023-07-23 18:46:04,2023-07-23 18:51:01,297.0,Tenerife,0.020594178200958914,6.116470925684799
2023-07-24 07:59:14,2023-07-24 08:02:40,206.0,Tenerife,0.08152056383800692,16.793236150629426
2023-07-24 18:32:27,2023-07-24 18:36:52,265.0,Tenerife,0.06369302377300598,16.878651299846585
2023-07-25 07:44:48,2023-07-25 07:49:23,275.0,Tenerife,0.032207816247952846,8.857149468187032
2023-07-25 18:19:16,2023-07-25 18:22:20,184.0,Tenerife,0.08562154295294139,15.754363903341215
2023-07-26 07:30:41,2023-07-26 07:35:43,302.0,Tenerife,0.013315179204444222,4.021184119742155
2023-07-27 07:16:48,2023-07-27 07:21:45,297.0,Tenerife,0.028008015979979903,8.318380746054032
2023-07-27 19:25:05,2023-07-27 19:28:42,217.0,Tenerife,0.06628606617306981,14.384076359556149
2023-07-28 07:03:09,2023-07-28 07:07:30,261.0,Tenerife,0.0750857852264078,19.597389944092434
2023-07-28 19:10:35,2023-07-28 19:15:16,281.0,Tenerife,0.06788132992279887,19.074653708306485
2023-07-29 06:49:56,2023-07-29 06:52:45,169.0,Tenerife,0.08426099898408639,14.240108828310598
2023-07-29 18:56:27,2023-07-29 19:01:29,302.0,Tenerife,0.01093117025605812,3.301213417329552
2023-07-30 08:10:40,2023-07-30 08:11:58,78.0,Tenerife,0.09424908032145339,7.351428265073364
2023-07-30 18:42:36,2023-07-30 18:47:29,293.0,Tenerife,0.025985053870944404,7.61362078418671
2023-07-31 07:55:32,2023-07-31 07:59:20,228.0,Tenerife,0.11175740484129065,25.48068830381427
2023-07-31 18:29:01,2023-07-31 18:33:12,251.0,Tenerife,0.057486670280529485,14.4291542404129
2023-08-01 07:41:08,2023-08-01 07:45:53,285.0,Tenerife,0.038616432300800294,11.005683205728085
2023-08-01 18:15:57,2023-08-01 18:18:27,150.0,Tenerife,0.10449017960839381,15.673526941259071
2023-08-02 07:27:02,2023-08-02 07:32:05,303.0,Tenerife,0.0075520238762347616,2.2882632344991327
2023-08-02 19:36:18,2023-08-02 19:38:04,106.0,Tenerife,0.0669264126322951,7.0941997390232805
2023-08-03 07:13:09,2023-08-03 07:18:00,291.0,Tenerife,0.04022268003575047,11.704799890403388
2023-08-03 19:21:10,2023-08-03 19:25:09,239.0,Tenerife,0.08595998807104166,20.544437148978957
2023-08-04 06:59:32,2023-08-04 07:03:36,244.0,Tenerife,0.05649288255655972,13.784263343800573
2023-08-04 19:06:44,2023-08-04 19:11:33,289.0,Tenerife,0.042107115093710346,12.168956262082292
2023-08-05 06:46:31,2023-08-05 06:48:32,121.0,Tenerife,0.07800028512839617,9.438034500535936
2023-08-05 18:52:37,2023-08-05 18:57:40,303.0,Tenerife,0.005165791037234287,1.5652346842819889
2023-08-06 08:06:18,2023-08-06 08:08:39,141.0,Tenerife,0.08872108611837275,12.509673142690557
2023-08-06 18:38:47,2023-08-06 18:43:32,285.0,Tenerife,0.024034467666415385,6.849823284928385
2023-08-07 07:51:28,2023-08-07 07:55:36,248.0,Tenerife,0.07373331493593759,18.28586210411252
2023-08-07 18:25:15,2023-08-07 18:29:07,232.0,Tenerife,0.07696828276468126,17.85664160140605
2023-08-08 07:37:07,2023-08-08 07:41:59,292.0,Tenerife,0.04120535470468514,12.031963573768063
2023-08-08 18:12:28,2023-08-08 18:13:59,91.0,Tenerife,0.059383768716769154,5.403922953225993
2023-08-09 07:23:01,2023-08-09 07:28:04,303.0,Tenerife,0.007903284134464348,2.394695092742697
2023-08-09 19:31:46,2023-08-09 19:34:28,162.0,Tenerife,0.06626471650793828,10.734884074286
2023-08-10 07:09:09,2023-08-10 07:13:51,282.0,Tenerife,0.0384831867029552,10.852258650233365
2023-08-10 19:16:54,2023-08-10 19:21:12,258.0,Tenerife,0.06063999853975037,15.645119623255594
2023-08-11 06:55:35,2023-08-11 06:59:16,221.0,Tenerife,0.08649926347276764,19.116337227481647
2023-08-11 19:02:31,2023-08-11 19:07:27,296.0,Tenerife,0.02467621856372591,7.304160694862869
2023-08-12 18:48:26,2023-08-12 18:53:26,300.0,Tenerife,0.0157333704291509,4.72001112874527
2023-08-13 08:01:43,2023-08-13 08:04:48,185.0,Tenerife,0.07173925018586007,13.271761284384114
2023-08-13 18:34:37,2023-08-13 18:39:11,274.0,Tenerife,0.052134988828094475,14.284986938897886
2023-08-14 07:47:02,2023-08-14 07:51:28,266.0,Tenerife,0.051557729857781814,13.714356142169962
2023-08-14 18:21:11,2023-08-14 18:24:35,204.0,Tenerife,0.09143997209136705,18.653754306638877
2023-08-15 07:32:43,2023-08-15 07:37:42,299.0,Tenerife,0.0228965648582371,6.846072892612892
2023-08-16 07:18:38,2023-08-16 07:23:38,300.0,Tenerife,0.030464083808858365,9.139225142657509
2023-08-16 19:27:00,2023-08-16 19:30:21,201.0,Tenerife,0.06890214956552744,13.849332062671015
2023-08-17 07:04:48,2023-08-17 07:09:17,269.0,Tenerife,0.06676361987862216,17.959413747349362
2023-08-17 19:12:16,2023-08-17 19:16:50,274.0,Tenerife,0.059243832504521664,16.232810106238936
2023-08-18 06:51:21,2023-08-18 06:54:28,187.0,Tenerife,0.06772334380426892,12.664265291398289
2023-08-18 18:57:56,2023-08-18 19:02:57,301.0,Tenerife,0.014256522609702164,4.291213305520351
2023-08-19 18:43:53,2023-08-19 18:48:49,296.0,Tenerife,0.02561305269879726,7.581463598843988
2023-08-20 07:56:51,2023-08-20 08:00:28,217.0,Tenerife,0.05251620756948118,11.396017042577416
2023-08-20 18:30:07,2023-08-20 18:34:25,258.0,Tenerife,0.05800524983794072,14.965354458188706
2023-08-21 07:42:16,2023-08-21 07:46:55,279.0,Tenerife,0.05554388281661808,15.496743305836445
2023-08-21 18:16:50,2023-08-21 18:19:35,165.0,Tenerife,0.1034711509468396,17.072739906228534
2023-08-22 07:27:58,2023-08-22 07:33:01,303.0,Tenerife,0.005890285642263045,1.784756549605703
2023-08-22 19:37:23,2023-08-22 19:38:42,79.0,Tenerife,0.11849929949459738,9.361444660073193
2023-08-23 07:13:55,2023-08-23 07:18:48,293.0,Tenerife,0.030929849749455212,9.062445976590379
2023-08-23 19:21:55,2023-08-23 19:25:48,233.0,Tenerife,0.067259515578663,15.671467129828478
2023-08-24 07:00:07,2023-08-24 07:04:16,249.0,Tenerife,0.10227565240323314,25.466637448405052
2023-08-24 19:07:18,2023-08-24 19:12:05,287.0,Tenerife,0.037410998591738284,10.736956595828888
2023-08-25 06:46:53,2023-08-25 06:49:08,135.0,Tenerife,0.11349877121793342,15.322334114421011
2023-08-25 18:53:01,2023-08-25 18:58:04,303.0,Tenerife,0.003453329340204508,1.046358790081966
2023-08-26 08:06:42,2023-08-26 08:08:53,131.0,Tenerife,0.09000189253993258,11.790247922731169
2023-08-26 18:39:00,2023-08-26 18:43:47,287.0,Tenerife,0.047421519399121155,13.609976067547771
2023-08-27 07:51:39,2023-08-27 07:55:44,245.0,Tenerife,0.05620683873644198,13.770675490428284
2023-08-27 18:25:19,2023-08-27 18:29:13,234.0,Tenerife,0.0680218555111837,15.917114189616985
2023-08-28 07:37:08,2023-08-28 07:41:59,291.0,Tenerife,0.04733714805747338,13.775110084724755
2023-08-28 18:12:21,2023-08-28 18:13:59,98.0,Tenerife,0.06345508417694082,6.2185982493402
2023-08-29 07:22:52,2023-08-29 07:27:55,303.0,Tenerife,0.00926129123811458,2.8061712451487177
2023-08-29 19:31:34,2023-08-29 19:34:14,160.0,Tenerife,0.10385627217532521,16.617003548052033
2023-08-30 07:08:51,2023-08-30 07:13:33,282.0,Tenerife,0.04762172119696483,13.429325377544084
2023-08-30 19:16:31,2023-08-30 19:20:49,258.0,Tenerife,0.07478593315529938,19.29477075406724
2023-08-31 06:55:08,2023-08-31 06:58:49,221.0,Tenerife,0.08213255284964888,18.151294179772403
2023-08-31 19:01:58,2023-08-31 19:06:56,298.0,Tenerife,0.027713568866411114,8.258643522190512
2023-09-01 18:47:45,2023-09-01 18:52:45,300.0,Tenerife,0.016500560159040566,4.95016804771217
2023-09-02 08:00:56,2023-09-02 08:04:03,187.0,Tenerife,0.07511666044668262,14.04681550352965
2023-09-02 18:33:47,2023-09-02 18:38:20,273.0,Tenerife,0.06001218827603959,16.383327399358805
2023-09-03 07:46:07,2023-09-03 07:50:33,266.0,Tenerife,0.041942347470956556,11.156664427274444
2023-09-03 18:20:13,2023-09-03 18:23:34,201.0,Tenerife,0.09815915943211671,19.72999104585546
2023-09-04 07:31:39,2023-09-04 07:36:38,299.0,Tenerife,0.01834519684459146,5.485213856532846
2023-09-05 07:17:25,2023-09-05 07:22:24,299.0,Tenerife,0.022346131905407587,6.68149343971687
2023-09-05 19:25:38,2023-09-05 19:29:06,208.0,Tenerife,0.08822352763527334,18.350493748136856
2023-09-06 07:03:27,2023-09-06 07:07:51,264.0,Tenerife,0.0702759210861157,18.552843166734547
2023-09-06 19:10:47,2023-09-06 19:15:24,277.0,Tenerife,0.04938772729246774,13.680400460013564
2023-09-07 06:49:54,2023-09-07 06:52:50,176.0,Tenerife,0.06749637240653236,11.879361543549695
2023-09-07 18:56:19,2023-09-07 19:01:21,302.0,Tenerife,0.008937688542104881,2.699181939715674
2023-09-08 08:10:30,2023-09-08 08:11:31,61.0,Tenerife,0.12878433318057625,7.855844324015151
2023-09-08 18:42:08,2023-09-08 18:47:02,294.0,Tenerife,0.03141892619079212,9.237164300092882
2023-09-09 07:54:56,2023-09-09 07:58:42,226.0,Tenerife,0.15128504945810867,34.190421177532556
2023-09-09 18:28:16,2023-09-09 18:32:27,251.0,Tenerife,0.07681287800016426,19.28003237804123
2023-09-10 07:40:14,2023-09-10 07:44:57,283.0,Tenerife,0.047131112235656095,13.338104762690676
2023-09-10 18:14:55,2023-09-10 18:17:22,147.0,Tenerife,0.07014274827520274,10.310983996454802
2023-09-11 07:25:49,2023-09-11 07:30:51,302.0,Tenerife,0.005305000944261033,1.602110285166832
2023-09-11 19:34:49,2023-09-11 19:36:47,118.0,Tenerife,0.17011919068842746,20.07406450123444
2023-09-12 07:11:38,2023-09-12 07:16:27,289.0,Tenerife,0.02810988967866266,8.12375811713351
2023-09-12 19:19:26,2023-09-12 19:23:30,244.0,Tenerife,0.06513563684486234,15.893095390146412
2023-09-13 06:57:45,2023-09-13 07:01:42,237.0,Tenerife,0.06849321846534949,16.23289277628783
2023-09-13 19:04:43,2023-09-13 19:09:35,292.0,Tenerife,0.030439645753026563,8.888376559883756
2023-09-14 06:44:35,2023-09-14 06:46:10,95.0,Tenerife,0.06329605526754654,6.0131252504169215
2023-09-14 18:50:19,2023-09-14 18:55:22,303.0,Tenerife,0.009477444009679781,2.871665534932974
2023-09-15 08:03:42,2023-09-15 08:06:20,158.0,Tenerife,0.10616585418911861,16.77420496188074
2023-09-15 18:36:13,2023-09-15 18:40:53,280.0,Tenerife,0.052956825922840484,14.827911258395336
2023-09-16 07:48:38,2023-09-16 07:52:53,255.0,Tenerife,0.055030320774245335,14.03273179743256
2023-09-16 18:22:27,2023-09-16 18:26:06,219.0,Tenerife,0.07491970547685002,16.407415499430154
2023-09-17 07:34:01,2023-09-17 07:38:56,295.0,Tenerife,0.05329571686936697,15.722236476463255
2023-09-18 07:19:39,2023-09-18 07:24:39,300.0,Tenerife,0.015955135528234715,4.786540658470414
2023-09-18 19:27:59,2023-09-18 19:31:08,189.0,Tenerife,0.10981290846867758,20.754639700580064
2023-09-19 07:05:32,2023-09-19 07:10:04,272.0,Tenerife,0.06101601798247692,16.59635689123372
2023-09-19 19:12:56,2023-09-19 19:17:26,270.0,Tenerife,0.07901960300701123,21.335292811893034
2023-09-20 06:51:47,2023-09-20 06:55:03,196.0,Tenerife,0.057990037999352664,11.366047447873122
2023-09-20 18:58:19,2023-09-20 19:03:20,301.0,Tenerife,0.018850463778940816,5.673989597461185
2023-09-21 18:44:00,2023-09-21 18:48:57,297.0,Tenerife,0.03713258366508939,11.02837734853155
2023-09-22 07:56:52,2023-09-22 08:00:24,212.0,Tenerife,0.09650821679510621,20.459741960562518
2023-09-22 18:29:58,2023-09-22 18:34:18,260.0,Tenerife,0.07872970949618904,20.46972446900915
2023-09-23 07:42:00,2023-09-23 07:46:38,278.0,Tenerife,0.078727275327982,21.886182541178997
2023-09-23 18:16:25,2023-09-23 18:19:13,168.0,Tenerife,0.1078114183836293,18.11231828844972
2023-09-24 07:27:27,2023-09-24 07:32:28,301.0,Tenerife,0.00556489007919128,1.6750319138365752
2023-09-24 19:36:44,2023-09-24 19:38:03,79.0,Tenerife,0.08250373363688504,6.517794957313919
2023-09-25 07:13:09,2023-09-25 07:18:00,291.0,Tenerife,0.05944886315395003,17.299619177799457
2023-09-25 19:21:00,2023-09-25 19:24:54,234.0,Tenerife,0.06867944564535367,16.070990281012758
2023-09-26 06:59:07,2023-09-26 07:03:12,245.0,Tenerife,0.06846632621715314,16.774249923202518
2023-09-26 19:06:07,2023-09-26 19:10:56,289.0,Tenerife,0.029053832502398545,8.39655759319318
2023-09-27 06:45:42,2023-09-27 06:47:44,122.0,Tenerife,0.0991118498177739,12.091645677768417
2023-09-27 18:51:36,2023-09-27 18:56:39,303.0,Tenerife,0.003791014959537677,1.1486775327399161
2023-09-28 08:05:03,2023-09-28 08:07:24,141.0,Tenerife,0.10732220873793825,15.132431432049293
2023-09-28 18:37:22,2023-09-28 18:42:06,284.0,Tenerife,0.02595198080341046,7.37036254816857
2023-09-29 07:49:48,2023-09-29 07:53:57,249.0,Tenerife,0.07779968583000815,19.372121771672028
2023-09-29 18:23:28,2023-09-29 18:27:14,226.0,Tenerife,0.07337200112040262,16.582072253210992
2023-09-30 07:35:03,2023-09-30 07:39:56,293.0,Tenerife,0.037707990254895886,11.048441144684496
2023-10-01 07:20:34,2023-10-01 07:25:34,300.0,Tenerife,0.014776899084804887,4.433069725441467
2023-10-01 19:28:57,2023-10-01 19:31:56,179.0,Tenerife,0.09650245550601091,17.273939535575956
2023-10-02 07:06:19,2023-10-02 07:10:55,276.0,Tenerife,0.06564437719930404,18.117848107007916
2023-10-02 19:13:45,2023-10-02 19:18:11,266.0,Tenerife,0.07545235605926365,20.070326711764128
2023-10-03 06:52:27,2023-10-03 06:55:50,203.0,Tenerife,0.10913942608319016,22.155303494887605
2023-10-03 18:59:00,2023-10-03 19:03:59,299.0,Tenerife,0.017008883350122538,5.085656121686639
2023-10-04 18:44:34,2023-10-04 18:49:31,297.0,Tenerife,0.017941470660947038,5.32861678630127
2023-10-05 07:57:26,2023-10-05 08:00:52,206.0,Tenerife,0.08094373480919721,16.674409370694626
2023-10-05 18:30:25,2023-10-05 18:34:48,263.0,Tenerife,0.07932291076230769,20.861925530486925
2023-10-06 07:42:26,2023-10-06 07:47:01,275.0,Tenerife,0.052895455350679466,14.546250221436853
2023-10-06 18:16:45,2023-10-06 18:19:38,173.0,Tenerife,0.09265303466424397,16.028974996914208
2023-10-07 07:27:46,2023-10-07 07:32:47,301.0,Tenerife,0.008953229965052564,2.6949222194808216
2023-10-07 19:37:08,2023-10-07 19:38:11,63.0,Tenerife,0.08630831863618349,5.437424074079559
2023-10-08 07:13:21,2023-10-08 07:18:14,293.0,Tenerife,0.030588443819610855,8.962414039145981
2023-10-08 19:21:11,2023-10-08 19:25:03,232.0,Tenerife,0.0799314659555636,18.544100101690756
2023-10-09 06:59:13,2023-10-09 07:03:20,247.0,Tenerife,0.09037423594640728,22.3224362787626
2023-10-09 19:06:12,2023-10-09 19:10:59,287.0,Tenerife,0.04732565225172858,13.582462196246102
2023-10-10 06:45:41,2023-10-10 06:47:46,125.0,Tenerife,0.08400448503233972,10.500560629042464
2023-10-10 18:51:34,2023-10-10 18:56:36,302.0,Tenerife,0.007239265010071684,2.1862580330416486
2023-10-11 08:04:58,2023-10-11 08:07:18,140.0,Tenerife,0.09807477171781319,13.730468040493847
2023-10-11 18:37:13,2023-10-11 18:41:57,284.0,Tenerife,0.04509129890337815,12.805928888559395
2023-10-12 07:49:36,2023-10-12 07:53:45,249.0,Tenerife,0.059672026112453855,14.85833450200101
2023-10-12 18:23:14,2023-10-12 18:27:00,226.0,Tenerife,0.0747629956984824,16.896437027857022
2023-10-13 07:34:45,2023-10-13 07:39:38,293.0,Tenerife,0.032458281348624635,9.510276435147018
2023-10-14 07:20:10,2023-10-14 07:25:11,301.0,Tenerife,0.014489873583393776,4.361451948601527
2023-10-14 19:28:30,2023-10-14 19:31:30,180.0,Tenerife,0.08210239276790851,14.778430698223533
2023-10-15 07:05:50,2023-10-15 07:10:24,274.0,Tenerife,0.05991779821783772,16.417476711687538
2023-10-15 19:13:12,2023-10-15 19:17:38,266.0,Tenerife,0.0677709802064246,18.027080734908942
2023-10-16 06:51:52,2023-10-16 06:55:12,200.0,Tenerife,0.08780063907565248,17.560127815130496
2023-10-16 18:58:21,2023-10-16 19:03:20,299.0,Tenerife,0.019889045585502994,5.946824630065396
2023-10-17 18:43:50,2023-10-17 18:48:46,296.0,Tenerife,0.01910362010484547,5.65467155103426
2023-10-18 07:56:35,2023-10-18 08:00:06,211.0,Tenerife,0.06221502278403349,13.127369807431066
2023-10-18 18:29:36,2023-10-18 18:33:55,259.0,Tenerife,0.09009394811362263,23.334332561428262
2023-10-19 07:41:31,2023-10-19 07:46:08,277.0,Tenerife,0.058092305454848656,16.09156861099308
2023-10-19 18:15:52,2023-10-19 18:18:37,165.0,Tenerife,0.13913286968162275,22.956923497467756
2023-10-20 07:26:45,2023-10-20 07:31:47,302.0,Tenerife,0.009954228208488371,3.006176918963488
2023-10-20 19:35:54,2023-10-20 19:37:18,84.0,Tenerife,0.10029572212351133,8.42484065837495
2023-10-21 07:12:15,2023-10-21 07:17:06,291.0,Tenerife,0.03456473390245551,10.058337565614556
2023-10-21 19:19:59,2023-10-21 19:23:56,237.0,Tenerife,0.0761485708477032,18.047211290905658
2023-10-22 06:58:02,2023-10-22 07:02:05,243.0,Tenerife,0.06818750613743416,16.5695639913965
2023-10-22 19:04:56,2023-10-22 19:09:44,288.0,Tenerife,0.039211428002030244,11.29289126458471
2023-10-23 06:44:31,2023-10-23 06:46:19,108.0,Tenerife,0.10454289837453352,11.290633024449619
2023-10-23 18:50:13,2023-10-23 18:55:14,301.0,Tenerife,0.005344373561849942,1.6086564421168326
2023-10-24 08:03:26,2023-10-24 08:06:00,154.0,Tenerife,0.0854970027438118,13.166538422547019
2023-10-24 18:35:48,2023-10-24 18:40:28,280.0,Tenerife,0.08621635314379472,24.14057888026252
2023-10-25 07:48:03,2023-10-25 07:52:17,254.0,Tenerife,0.07118278919290155,18.080428454996994
2023-10-25 18:21:45,2023-10-25 18:25:22,217.0,Tenerife,0.13252794518392647,28.75856410491204
2023-10-26 07:33:07,2023-10-26 07:38:02,295.0,Tenerife,0.02359512767883554,6.960562665256485
2023-10-27 07:18:27,2023-10-27 07:23:27,300.0,Tenerife,0.014237095791399713,4.2711287374199145
2023-10-27 19:26:37,2023-10-27 19:29:50,193.0,Tenerife,0.11622855228328141,22.432110590673314
2023-10-28 07:04:03,2023-10-28 07:08:33,270.0,Tenerife,0.07208247101402858,19.462267173787716
2023-10-28 19:11:17,2023-10-28 19:15:48,271.0,Tenerife,0.04168869442808009,11.297636190009705
2023-10-29 06:50:04,2023-10-29 06:53:10,186.0,Tenerife,0.08530026033218248,15.865848421785943
2023-10-29 18:56:23,2023-10-29 19:01:23,300.0,Tenerife,0.01167777963320033,3.5033338899600994
2023-10-30 18:41:47,2023-10-30 18:46:40,293.0,Tenerife,0.03306279714180434,9.687399562548672
2023-10-31 07:54:22,2023-10-31 07:58:05,223.0,Tenerife,0.06536140738699243,14.575593847299313
2023-10-31 18:27:31,2023-10-31 18:31:41,250.0,Tenerife,0.07413553365497724,18.533883413744313
2023-11-01 07:39:14,2023-11-01 07:43:57,283.0,Tenerife,0.04252148250762358,12.033579549657475
2023-11-01 18:13:48,2023-11-01 18:16:10,142.0,Tenerife,0.06964436784207094,9.889500233574074
2023-11-02 07:24:25,2023-11-02 07:29:27,302.0,Tenerife,0.00541903750492119,1.6365493264861992
2023-11-02 19:33:10,2023-11-02 19:35:15,125.0,Tenerife,0.07148475989786474,8.935594987233092
2023-11-03 07:09:51,2023-11-03 07:14:38,287.0,Tenerife,0.05257423714798793,15.088806061472535
2023-11-03 19:17:24,2023-11-03 19:21:32,248.0,Tenerife,0.06800519397104793,16.865288104819886
2023-11-04 06:55:37,2023-11-04 06:59:26,229.0,Tenerife,0.08533305268414165,19.541269064668437
2023-11-04 19:02:18,2023-11-04 19:07:11,293.0,Tenerife,0.03073113655405088,9.004223010336908
2023-11-05 18:47:33,2023-11-05 18:52:32,299.0,Tenerife,0.009828393295791476,2.9386895954416508
2023-11-06 08:00:30,2023-11-06 08:03:29,179.0,Tenerife,0.08279762970232678,14.820775716716492
2023-11-06 18:33:05,2023-11-06 18:37:37,272.0,Tenerife,0.06969456090667951,18.95692056661683
2023-11-07 07:45:07,2023-11-07 07:49:33,266.0,Tenerife,0.07639282526639117,20.32049152086005
2023-11-07 18:19:02,2023-11-07 18:22:20,198.0,Tenerife,0.08026012406176898,15.891504564230257
2023-11-08 07:30:09,2023-11-08 07:35:08,299.0,Tenerife,0.020688293097708987,6.185799636214987
2023-11-09 07:15:26,2023-11-09 07:20:23,297.0,Tenerife,0.03545974615818464,10.53154460898084
2023-11-09 19:23:20,2023-11-09 19:26:54,214.0,Tenerife,0.07379122383663712,15.791321901040344
2023-11-10 07:01:00,2023-11-10 07:05:18,258.0,Tenerife,0.07119023950331693,18.36708179185577
2023-11-10 19:08:00,2023-11-10 19:12:41,281.0,Tenerife,0.07337441818285327,20.618211509381766
2023-11-11 06:47:04,2023-11-11 06:49:39,155.0,Tenerife,0.08692246305195628,13.472981773053222
2023-11-11 18:53:04,2023-11-11 18:58:05,301.0,Tenerife,0.008794244137380766,2.6470674853516107
2023-11-12 08:06:33,2023-11-12 08:08:25,112.0,Tenerife,0.08070025116322052,9.038428130280698
2023-11-12 18:38:26,2023-11-12 18:43:13,287.0,Tenerife,0.04288999990407123,12.309429972468445
2023-11-13 07:50:46,2023-11-13 07:54:48,242.0,Tenerife,0.07112066842820727,17.21120175962616
2023-11-13 18:24:09,2023-11-13 18:28:03,234.0,Tenerife,0.06465039935424532,15.128193448893406
2023-11-14 07:35:38,2023-11-14 07:40:28,290.0,Tenerife,0.04595723883300471,13.327599261571367
2023-11-14 18:10:41,2023-11-14 18:12:07,86.0,Tenerife,0.11112377154056141,9.55664435248828
2023-11-15 07:20:46,2023-11-15 07:25:48,302.0,Tenerife,0.010644035478576551,3.214498714530119
2023-11-15 19:29:05,2023-11-15 19:31:53,168.0,Tenerife,0.10258440329905717,17.234179754241605
2023-11-16 07:06:10,2023-11-16 07:10:48,278.0,Tenerife,0.053917241907182285,14.988993250196675
2023-11-16 19:13:27,2023-11-16 19:17:50,263.0,Tenerife,0.06816631729689306,17.927741449082873
2023-11-17 06:51:57,2023-11-17 06:55:22,205.0,Tenerife,0.07000249312473748,14.350511090571183
2023-11-17 18:58:21,2023-11-17 19:03:19,298.0,Tenerife,0.02297593576515743,6.846828858016915
2023-11-18 18:43:34,2023-11-18 18:48:30,296.0,Tenerife,0.01882442641112008,5.572030217691544
2023-11-19 07:56:12,2023-11-19 07:59:42,210.0,Tenerife,0.056776386429666405,11.923041150229945
2023-11-19 18:29:06,2023-11-19 18:33:24,258.0,Tenerife,0.04824879206366315,12.448188352425094
2023-11-20 07:40:52,2023-11-20 07:45:30,278.0,Tenerife,0.05739105545759932,15.954713417212611
2023-11-20 18:15:08,2023-11-20 18:17:50,162.0,Tenerife,0.06699799878298833,10.85367580284411
2023-11-21 07:25:52,2023-11-21 07:30:53,301.0,Tenerife,0.009450939657343893,2.8447328368605116
2023-11-21 19:34:47,2023-11-21 19:36:21,94.0,Tenerife,0.11857652631652632,11.146193473753476
2023-11-22 07:11:07,2023-11-22 07:15:57,290.0,Tenerife,0.04375348378487902,12.688510297614917
2023-11-22 19:18:41,2023-11-22 19:22:40,239.0,Tenerife,0.07215921507367536,17.24605240260841
2023-11-23 06:56:41,2023-11-23 07:00:39,238.0,Tenerife,0.06210383878933828,14.78071363186251
2023-11-23 19:03:23,2023-11-23 19:08:13,290.0,Tenerife,0.03544009428098325,10.277627341485141
2023-11-24 06:43:04,2023-11-24 06:44:29,85.0,Tenerife,0.08510038128000973,7.233532408800827
2023-11-24 18:48:27,2023-11-24 18:53:27,300.0,Tenerife,0.009763511462177882,2.929053438653365
2023-11-25 08:01:25,2023-11-25 08:04:14,169.0,Tenerife,0.09755295142604059,16.48644879100086
2023-11-25 18:33:49,2023-11-25 18:38:25,276.0,Tenerife,0.056934561662525036,15.71393901885691
2023-11-26 07:45:50,2023-11-26 07:50:12,262.0,Tenerife,0.07255463120672023,19.0093133761607
2023-11-26 18:19:35,2023-11-26 18:23:00,205.0,Tenerife,0.07653914325970539,15.690524368239602
2023-11-27 07:30:42,2023-11-27 07:35:39,297.0,Tenerife,0.025551709485504358,7.588857717194795
2023-11-28 07:15:49,2023-11-28 07:20:47,298.0,Tenerife,0.024207070904529043,7.213707129549655
2023-11-28 19:23:40,2023-11-28 19:27:10,210.0,Tenerife,0.10102864167764516,21.216014752305483
2023-11-29 07:01:13,2023-11-29 07:05:34,261.0,Tenerife,0.08470506770459751,22.108022670899953
2023-11-29 19:08:10,2023-11-29 19:12:50,280.0,Tenerife,0.0614033119990847,17.192927359743713
2023-11-30 06:47:07,2023-11-30 06:49:47,160.0,Tenerife,0.10798292753686703,17.277268405898724
2023-11-30 18:53:05,2023-11-30 18:58:06,301.0,Tenerife,0.007159049580826766,2.1548739238288563
2023-12-01 08:06:31,2023-12-01 08:08:19,108.0,Tenerife,0.127614790732168,13.782397399074144
2023-12-01 18:38:18,2023-12-01 18:43:05,287.0,Tenerife,0.051788945448289644,14.863427343659128
2023-12-02 07:50:34,2023-12-02 07:54:34,240.0,Tenerife,0.10955156682077677,26.29237603698643
2023-12-02 18:23:52,2023-12-02 18:27:46,234.0,Tenerife,0.07575287681707454,17.72617317519544
2023-12-03 07:35:16,2023-12-03 07:40:06,290.0,Tenerife,0.03767806105947985,10.926637707249155
2023-12-03 18:10:16,2023-12-03 18:11:40,84.0,Tenerife,0.11115065243681846,9.33665480469275
2023-12-04 07:20:16,2023-12-04 07:25:17,301.0,Tenerife,0.0064065795555856,1.9283804462312657
2023-12-04 19:28:27,2023-12-04 19:31:19,172.0,Tenerife,0.10372452817460427,17.840618846031933
2023-12-05 07:05:31,2023-12-05 07:10:08,277.0,Tenerife,0.07698095022844233,21.323723213278523
2023-12-05 19:12:42,2023-12-05 19:17:07,265.0,Tenerife,0.11034332237374644,29.240980429042803
2023-12-06 06:51:10,2023-12-06 06:54:31,201.0,Tenerife,0.09093891651998427,18.278722220516837
2023-12-06 18:57:27,2023-12-06 19:02:26,299.0,Tenerife,0.01450136922659645,4.335909398752339
2023-12-07 18:42:32,2023-12-07 18:47:27,295.0,Tenerife,0.03315466643512176,9.780626598360918
2023-12-08 07:55:03,2023-12-08 07:58:38,215.0,Tenerife,0.09445898265997643,20.308681271894937
2023-12-08 18:27:56,2023-12-08 18:32:11,255.0,Tenerife,0.05784046948364426,14.749319718329287
2023-12-09 07:39:35,2023-12-09 07:44:15,280.0,Tenerife,0.043144152308527486,12.080362646387695
2023-12-09 18:13:54,2023-12-09 18:16:25,151.0,Tenerife,0.10091075715113844,15.237524329821905
2023-12-10 07:24:27,2023-12-10 07:29:28,301.0,Tenerife,0.006046175857380016,1.8198989330713846
2023-12-10 19:33:05,2023-12-10 19:35:03,118.0,Tenerife,0.06406968871012296,7.560223267794509
2023-12-11 07:09:35,2023-12-11 07:14:22,287.0,Tenerife,0.04420830996890595,12.687784961076009
2023-12-11 19:16:58,2023-12-11 19:21:05,247.0,Tenerife,0.09277378160826505,22.915124057241467
2023-12-12 06:55:03,2023-12-12 06:58:52,229.0,Tenerife,0.09119613248005363,20.883914337932282
2023-12-12 19:01:34,2023-12-12 19:06:28,294.0,Tenerife,0.03401276058388067,9.999751611660917
2023-12-13 18:46:31,2023-12-13 18:51:31,300.0,Tenerife,0.01218013458329574,3.654040374988722
2023-12-14 07:59:17,2023-12-14 08:02:21,184.0,Tenerife,0.10324975517579733,18.99795495234671
2023-12-14 18:31:46,2023-12-14 18:36:17,271.0,Tenerife,0.056312595975539566,15.260713509371222
2023-12-15 07:43:37,2023-12-15 07:48:05,268.0,Tenerife,0.052314318980463584,14.020237486764243
2023-12-15 18:17:29,2023-12-15 18:20:39,190.0,Tenerife,0.07799507287495938,14.819063846242283
2023-12-16 07:28:22,2023-12-16 07:33:21,299.0,Tenerife,0.013726571266642602,4.104244808726138
2023-12-17 07:13:23,2023-12-17 07:18:17,294.0,Tenerife,0.02535129791713671,7.453281587638193
2023-12-17 19:21:00,2023-12-17 19:24:45,225.0,Tenerife,0.07376260809796154,16.596586822041342
2023-12-18 06:58:41,2023-12-18 07:02:51,250.0,Tenerife,0.0748006229317359,18.700155732933972
2023-12-18 19:05:25,2023-12-18 19:10:11,286.0,Tenerife,0.03851848678630832,11.016287220884179
2023-12-19 06:44:38,2023-12-19 06:46:43,125.0,Tenerife,0.15993280736341714,19.991600920427143
2023-12-19 18:50:14,2023-12-19 18:55:16,302.0,Tenerife,0.00410971773767718,1.2411347567785085
2023-12-20 08:03:18,2023-12-20 08:05:43,145.0,Tenerife,0.06649026352094796,9.641088210537452
2023-12-20 18:35:22,2023-12-20 18:40:03,281.0,Tenerife,0.04023619576633974,11.306371010341465
2023-12-21 07:47:24,2023-12-21 07:51:37,253.0,Tenerife,0.05987264398429041,15.147778928025472
2023-12-21 18:20:53,2023-12-21 18:24:30,217.0,Tenerife,0.07549031877407433,16.38139917397413
2023-12-22 07:32:01,2023-12-22 07:36:56,295.0,Tenerife,0.027883179555175906,8.225537968776893
2023-12-23 07:16:55,2023-12-23 07:21:53,298.0,Tenerife,0.011045299594033067,3.2914992790218545
2023-12-23 19:24:46,2023-12-23 19:28:06,200.0,Tenerife,0.055394817640399094,11.078963528079818
2023-12-24 07:02:06,2023-12-24 07:06:30,264.0,Tenerife,0.08219699887390741,21.70000770271156
2023-12-24 19:09:00,2023-12-24 19:13:36,276.0,Tenerife,0.08872067632117152,24.486906664643342
2023-12-25 06:47:45,2023-12-25 06:50:35,170.0,Tenerife,0.08385903438916267,14.256035846157653
2023-12-25 18:53:41,2023-12-25 18:58:42,301.0,Tenerife,0.007957792121673348,2.395295428623678
2023-12-26 08:07:10,2023-12-26 08:08:39,89.0,Tenerife,0.11318547383730687,10.073507171520312
2023-12-26 18:38:42,2023-12-26 18:43:31,289.0,Tenerife,0.028493573111964866,8.234642629357847
2023-12-27 07:50:54,2023-12-27 07:54:50,236.0,Tenerife,0.07014436165479147,16.55406935053079
2023-12-27 18:24:03,2023-12-27 18:28:01,238.0,Tenerife,0.06799032982354689,16.18169849800416
2023-12-28 07:35:23,2023-12-28 07:40:12,289.0,Tenerife,0.03502769816754781,10.123004770421318
2023-12-28 18:10:13,2023-12-28 18:11:45,92.0,Tenerife,0.10475248282073768,9.637228419507865
2023-12-29 07:20:11,2023-12-29 07:25:11,300.0,Tenerife,0.010554750625749312,3.1664251877247938
2023-12-29 19:28:17,2023-12-29 19:31:07,170.0,Tenerife,0.08432002270343979,14.334403859584764
2023-12-30 07:05:15,2023-12-30 07:09:50,275.0,Tenerife,0.05484253587252584,15.081697364944606
2023-12-30 19:12:19,2023-12-30 19:16:44,265.0,Tenerife,0.09073734698144234,24.04539695008222
2023-12-31 06:50:42,2023-12-31 06:54:01,199.0,Tenerife,0.08820331110819803,17.55245891053141
2023-12-31 18:56:52,2023-12-31 19:01:51,299.0,Tenerife,0.012464160650945768,3.7267840346327845
2024-01-01 18:41:46,2024-01-01 18:46:41,295.0,Tenerife,0.02184415089469181,6.444024513934084
2024-01-02 07:54:08,2024-01-02 07:57:45,217.0,Tenerife,0.07736804645787378,16.78886608135861
2024-01-02 18:26:59,2024-01-02 18:31:12,253.0,Tenerife,0.056839677134669336,14.380438315071341
2024-01-03 07:38:29,2024-01-03 07:43:10,281.0,Tenerife,0.046806979269488194,13.152761174726184
2024-01-03 18:12:49,2024-01-03 18:15:10,141.0,Tenerife,0.11636503420508237,16.407469822916614
2024-01-04 07:23:10,2024-01-04 07:28:11,301.0,Tenerife,0.006427656780723722,1.9347246909978402
2024-01-04 19:31:35,2024-01-04 19:33:48,133.0,Tenerife,0.15052107329086345,20.01930274768484
2024-01-05 07:08:08,2024-01-05 07:12:51,283.0,Tenerife,0.034764108266471035,9.838242639411302
2024-01-05 19:15:21,2024-01-05 19:19:33,252.0,Tenerife,0.08766122646155075,22.09062906831079
2024-01-06 06:53:26,2024-01-06 06:57:06,220.0,Tenerife,0.10055281968138961,22.121620329905717
2024-01-06 18:59:47,2024-01-06 19:04:42,295.0,Tenerife,0.03975374301113446,11.727354188284666
2024-01-07 18:44:34,2024-01-07 18:49:32,298.0,Tenerife,0.017575499845297264,5.237498953898585
2024-01-08 07:57:06,2024-01-08 08:00:22,196.0,Tenerife,0.06385060451094586,12.514718484145389
2024-01-08 18:29:40,2024-01-08 18:34:04,264.0,Tenerife,0.05310388068814077,14.019424501669164
2024-01-09 07:41:18,2024-01-09 07:45:51,273.0,Tenerife,0.04633776594950372,12.650210104214516
2024-01-09 18:15:17,2024-01-09 18:18:08,171.0,Tenerife,0.08831220692064792,15.101387383430794
2024-01-10 07:25:53,2024-01-10 07:30:53,300.0,Tenerife,0.011266367555203508,3.3799102665610516
2024-01-10 19:34:42,2024-01-10 19:36:04,82.0,Tenerife,0.1028488536444851,8.433605998847778
2024-01-11 07:10:44,2024-01-11 07:15:34,290.0,Tenerife,0.03354293359450791,9.727450742407294
2024-01-11 19:18:06,2024-01-11 19:22:05,239.0,Tenerife,0.0958800923212926,22.915342064788934
2024-01-12 06:55:56,2024-01-12 06:59:51,235.0,Tenerife,0.07144890953198502,16.790493740016476
2024-01-12 19:02:25,2024-01-12 19:07:15,290.0,Tenerife,0.039566669558642686,11.474334172006378
2024-01-13 06:42:02,2024-01-13 06:43:09,67.0,Tenerife,0.0758020971352254,5.078740508060101
2024-01-13 18:47:05,2024-01-13 18:52:05,300.0,Tenerife,0.007396154673002037,2.2188464019006116
2024-01-14 07:59:47,2024-01-14 08:02:41,174.0,Tenerife,0.13424754192496,23.35907229494304
2024-01-14 18:32:05,2024-01-14 18:36:37,272.0,Tenerife,0.07096873156735639,19.30349498632094
2024-01-15 07:43:50,2024-01-15 07:48:14,264.0,Tenerife,0.0720420656087943,19.019105320721696
2024-01-15 18:17:32,2024-01-15 18:20:45,193.0,Tenerife,0.0760031702984524,14.668611867601312
2024-01-16 07:28:19,2024-01-16 07:33:17,298.0,Tenerife,0.01705639216788524,5.082804866029801
2024-01-17 07:13:05,2024-01-17 07:17:58,293.0,Tenerife,0.02625097629257337,7.691536053723997
2024-01-17 19:20:35,2024-01-17 19:24:19,224.0,Tenerife,0.1015697006171323,22.751612938237635
2024-01-18 06:58:09,2024-01-18 07:02:17,248.0,Tenerife,0.11171257353483349,27.704718236638705
2024-01-18 19:04:45,2024-01-18 19:09:31,286.0,Tenerife,0.019554655341889306,5.592631427780342
2024-01-19 06:43:54,2024-01-19 06:45:51,117.0,Tenerife,0.09466501565687839,11.075806831854772
2024-01-19 18:49:20,2024-01-19 18:54:20,300.0,Tenerife,0.0059555362969170985,1.7866608890751294
2024-01-20 08:02:12,2024-01-20 08:04:42,150.0,Tenerife,0.09109866707282091,13.664800060923138
2024-01-20 18:34:14,2024-01-20 18:38:53,279.0,Tenerife,0.04129497105486131,11.521296924306306
2024-01-21 07:46:05,2024-01-21 07:50:20,255.0,Tenerife,0.09235909252421284,23.551568593674276
2024-01-21 18:19:33,2024-01-21 18:23:02,209.0,Tenerife,0.08142819635439565,17.01849303806869
2024-01-22 07:30:28,2024-01-22 07:35:23,295.0,Tenerife,0.020973579344371364,6.1872059065895515
2024-01-23 07:15:09,2024-01-23 07:20:05,296.0,Tenerife,0.025809312516755636,7.6395565049596685
2024-01-23 19:22:46,2024-01-23 19:26:16,210.0,Tenerife,0.053595511184593374,11.255057348764609
2024-01-24 07:00:07,2024-01-24 07:04:24,257.0,Tenerife,0.09227601182172937,23.71493503818445
2024-01-24 19:06:49,2024-01-24 19:11:29,280.0,Tenerife,0.06595792499223287,18.468218997825204
2024-01-25 06:45:39,2024-01-25 06:48:06,147.0,Tenerife,0.0699490028216969,10.282503414789446
2024-01-25 18:51:18,2024-01-25 18:56:18,300.0,Tenerife,0.0052270138648573584,1.5681041594572076
2024-01-26 08:04:20,2024-01-26 08:06:25,125.0,Tenerife,0.11233777992403904,14.042222490504878
2024-01-26 18:36:06,2024-01-26 18:40:50,284.0,Tenerife,0.04326693379643103,12.287809198186414
2024-01-27 07:48:02,2024-01-27 07:52:09,247.0,Tenerife,0.04601111030166272,11.36474424451069
2024-01-27 18:21:19,2024-01-27 18:25:00,221.0,Tenerife,0.07431354067785594,16.423292489806162
2024-01-28 07:32:19,2024-01-28 07:37:12,293.0,Tenerife,0.033151624631008667,9.71342601688554
2024-01-29 07:16:55,2024-01-29 07:21:53,298.0,Tenerife,0.019332955151472864,5.761220635138913
2024-01-29 19:24:40,2024-01-29 19:27:56,196.0,Tenerife,0.08270692957924743,16.210558197532496
2024-01-30 07:01:48,2024-01-30 07:06:13,265.0,Tenerife,0.07406317344367724,19.62674096257447
2024-01-30 19:08:35,2024-01-30 19:13:10,275.0,Tenerife,0.05947175096191243,16.35473151452592
2024-01-31 06:47:11,2024-01-31 06:49:59,168.0,Tenerife,0.07553934947032265,12.690610711014205
2024-01-31 18:52:59,2024-01-31 18:57:59,300.0,Tenerife,0.0066740922517619745,2.002227675528592
2024-02-01 08:06:13,2024-02-01 08:07:49,96.0,Tenerife,0.08909580408738371,8.553197192388836
2024-02-01 18:37:42,2024-02-01 18:42:29,287.0,Tenerife,0.03641550517410816,10.451249984969042
2024-02-02 07:49:42,2024-02-02 07:53:41,239.0,Tenerife,0.06146760963895365,14.690758703709925
2024-02-02 18:22:48,2024-02-02 18:26:39,231.0,Tenerife,0.11197754391547024,25.866812644473626
2024-02-03 07:33:54,2024-02-03 07:38:44,290.0,Tenerife,0.036676765822276525,10.636262088460192
2024-02-04 07:18:25,2024-02-04 07:23:24,299.0,Tenerife,0.008429135763833437,2.5203115933861975
2024-02-04 19:26:16,2024-02-04 19:29:18,182.0,Tenerife,0.11449781254525274,20.838601883236
2024-02-05 07:03:13,2024-02-05 07:07:43,270.0,Tenerife,0.07073997052618991,19.099792042071275
2024-02-05 19:10:04,2024-02-05 19:14:34,270.0,Tenerife,0.07875914431294968,21.264968964496415
2024-02-06 06:48:29,2024-02-06 06:51:31,182.0,Tenerife,0.13754422326114818,25.03304863352897
2024-02-06 18:54:22,2024-02-06 18:59:21,299.0,Tenerife,0.010444451803340422,3.122891089198786
2024-02-07 08:07:52,2024-02-07 08:08:53,61.0,Tenerife,0.11160991596943443,6.8082048741355
2024-02-07 18:39:01,2024-02-07 18:43:50,289.0,Tenerife,0.027897212312292835,8.06229435825263
2024-02-08 07:51:04,2024-02-08 07:54:56,232.0,Tenerife,0.08935921038351367,20.731336808975176
2024-02-08 18:24:02,2024-02-08 18:28:00,238.0,Tenerife,0.06499742465454657,15.469387067782083
2024-02-09 07:35:11,2024-02-09 07:39:59,288.0,Tenerife,0.04052336158684393,11.670728137011052
2024-02-09 18:09:52,2024-02-09 18:11:23,91.0,Tenerife,0.09622402375145292,8.756386161382215
2024-02-10 07:19:38,2024-02-10 07:24:38,300.0,Tenerife,0.006144620164937679,1.8433860494813037
2024-02-10 19:27:34,2024-02-10 19:30:24,170.0,Tenerife,0.06876922958961734,11.690769030234947
2024-02-11 07:04:22,2024-02-11 07:08:56,274.0,Tenerife,0.0455432879402698,12.478860895633925
2024-02-11 19:11:15,2024-02-11 19:15:40,265.0,Tenerife,0.05206170928989755,13.79635296182285
2024-02-12 06:49:31,2024-02-12 06:52:44,193.0,Tenerife,0.16490231533147093,31.826146858973893
2024-02-12 18:55:28,2024-02-12 19:00:27,299.0,Tenerife,0.011477337813987881,3.4317240063823764
2024-02-13 18:40:03,2024-02-13 18:44:54,291.0,Tenerife,0.03875625788937729,11.27807104580879
2024-02-14 07:52:08,2024-02-14 07:55:54,226.0,Tenerife,0.07746822630653405,17.507819145276695
2024-02-14 18:24:59,2024-02-14 18:29:02,243.0,Tenerife,0.08153315090664305,19.81255567031426
2024-02-15 07:36:10,2024-02-15 07:40:56,286.0,Tenerife,0.03385843166082305,9.683511454995392
2024-02-15 18:10:39,2024-02-15 18:12:29,110.0,Tenerife,0.06067201815851796,6.673921997436976
2024-02-16 07:20:33,2024-02-16 07:25:34,301.0,Tenerife,0.005380355260753428,1.619486933486782
2024-02-16 19:28:34,2024-02-16 19:31:13,159.0,Tenerife,0.08042625642949652,12.787774772289948
2024-02-17 07:05:13,2024-02-17 07:09:50,277.0,Tenerife,0.05776669254484053,16.001373834920827
2024-02-17 19:12:08,2024-02-17 19:16:30,262.0,Tenerife,0.05566865076605504,14.58518650070642
2024-02-18 06:50:17,2024-02-18 06:53:38,201.0,Tenerife,0.11115550797405689,22.342257102785435
2024-02-18 18:56:17,2024-02-18 19:01:14,297.0,Tenerife,0.018579087620847225,5.5179890233916264
2024-02-19 18:40:48,2024-02-19 18:45:40,292.0,Tenerife,0.018652130315473348,5.446422052118217
2024-02-20 07:52:54,2024-02-20 07:56:35,221.0,Tenerife,0.07255087260118949,16.03374284486288
2024-02-20 18:25:40,2024-02-20 18:29:47,247.0,Tenerife,0.08390126690499167,20.723612925532944
2024-02-21 07:36:52,2024-02-21 07:41:36,284.0,Tenerife,0.03940546727361512,11.191152705706696
2024-02-21 18:11:13,2024-02-21 18:13:14,121.0,Tenerife,0.07488685201897986,9.061309094296565
2024-02-22 07:21:11,2024-02-22 07:26:12,301.0,Tenerife,0.006305672748268685,1.8980074972288743
2024-02-22 19:29:14,2024-02-22 19:31:45,151.0,Tenerife,0.09653104264627976,14.576187439588246
2024-02-23 07:05:48,2024-02-23 07:10:27,279.0,Tenerife,0.05381974299036213,15.015708294311036
2024-02-23 19:12:43,2024-02-23 19:17:02,259.0,Tenerife,0.0482768581841331,12.503706269690472
2024-02-24 06:50:48,2024-02-24 06:54:13,205.0,Tenerife,0.10313425407832208,21.142522086056026
2024-02-24 18:56:49,2024-02-24 19:01:45,296.0,Tenerife,0.019470699588560684,5.763327078213963
2024-02-25 18:41:16,2024-02-25 18:46:09,293.0,Tenerife,0.02692444919391728,7.8888636138177635
2024-02-26 07:53:22,2024-02-26 07:57:00,218.0,Tenerife,0.07340714370131744,16.002757326887203
2024-02-26 18:26:04,2024-02-26 18:30:13,249.0,Tenerife,0.08684771927384019,21.62508209918621
2024-02-27 07:37:17,2024-02-27 07:41:59,282.0,Tenerife,0.0311639677560978,8.78823890721958
2024-02-27 18:11:32,2024-02-27 18:13:40,128.0,Tenerife,0.0642303522650564,8.221485089927219
2024-02-28 07:21:32,2024-02-28 07:26:33,301.0,Tenerife,0.006599340530110493,1.9864014995632584
2024-02-28 19:29:36,2024-02-28 19:32:02,146.0,Tenerife,0.08044298897944993,11.74467639099969
2024-02-29 07:06:05,2024-02-29 07:10:45,280.0,Tenerife,0.061131648700640674,17.116861636179387
2024-02-29 19:13:00,2024-02-29 19:17:18,258.0,Tenerife,0.13208811430465556,34.07873349060113
2024-03-01 06:51:02,2024-03-01 06:54:29,207.0,Tenerife,0.13419304879667457,27.777961100911636
2024-03-01 18:57:02,2024-03-01 19:01:59,297.0,Tenerife,0.023886876872898012,7.0944024312507095
2024-03-02 18:41:26,2024-03-02 18:46:20,294.0,Tenerife,0.021375656342134702,6.284442964587603
2024-03-03 07:53:32,2024-03-03 07:57:09,217.0,Tenerife,0.09137576000757319,19.828539921643383
2024-03-03 18:26:11,2024-03-03 18:30:21,250.0,Tenerife,0.07053869954494818,17.634674886237047
2024-03-04 07:37:23,2024-03-04 07:42:05,282.0,Tenerife,0.08753577908611496,24.68508970228442
2024-03-04 18:11:36,2024-03-04 18:13:46,130.0,Tenerife,0.07001265815634054,9.10164556032427
2024-03-05 07:21:36,2024-03-05 07:26:36,300.0,Tenerife,0.007789933465670978,2.3369800397012934
2024-03-05 19:29:38,2024-03-05 19:32:04,146.0,Tenerife,0.080204674336389,11.709882453112796
2024-03-06 07:06:06,2024-03-06 07:10:46,280.0,Tenerife,0.05460942700555647,15.290639561555809
2024-03-06 19:12:59,2024-03-06 19:17:17,258.0,Tenerife,0.07373832908933746,19.024488905049065
2024-03-07 06:51:00,2024-03-07 06:54:27,207.0,Tenerife,0.08329369934990345,17.241795765430016
2024-03-07 18:56:58,2024-03-07 19:01:55,297.0,Tenerife,0.013987867923089843,4.154396773157683
2024-03-08 18:41:19,2024-03-08 18:46:13,294.0,Tenerife,0.029738715992246974,8.743182501720609
2024-03-09 07:53:24,2024-03-09 07:57:01,217.0,Tenerife,0.06480934940767112,14.063628821464635
2024-03-09 18:26:02,2024-03-09 18:30:11,249.0,Tenerife,0.060614164675953736,15.09292700431248
2024-03-10 07:37:12,2024-03-10 07:41:54,282.0,Tenerife,0.043665829103676286,12.313763807236713
2024-03-10 18:11:24,2024-03-10 18:13:32,128.0,Tenerife,0.0909042756644824,11.635747285053748
2024-03-11 07:21:22,2024-03-11 07:26:22,300.0,Tenerife,0.005634649288724773,1.6903947866174318
2024-03-11 19:29:21,2024-03-11 19:31:50,149.0,Tenerife,0.11268268296179881,16.789719761308024
2024-03-12 07:05:49,2024-03-12 07:10:28,279.0,Tenerife,0.05242950863433322,14.627832908978968
2024-03-12 19:12:40,2024-03-12 19:16:59,259.0,Tenerife,0.08123215495103484,21.03912813231802
2024-03-13 06:50:41,2024-03-13 06:54:06,205.0,Tenerife,0.07433248880026129,15.238160204053564
2024-03-13 18:56:37,2024-03-13 19:01:34,297.0,Tenerife,0.017533901322560448,5.207568692800453
2024-03-14 18:40:55,2024-03-14 18:45:48,293.0,Tenerife,0.02763920861351818,8.098288123760826
2024-03-15 07:52:57,2024-03-15 07:56:36,219.0,Tenerife,0.08222273409158447,18.006778766057
2024-03-15 18:25:35,2024-03-15 18:29:43,248.0,Tenerife,0.06262990544585824,15.532216550572844
2024-03-16 07:36:43,2024-03-16 07:41:26,283.0,Tenerife,0.0503516628782341,14.24952059454025
2024-03-16 18:10:58,2024-03-16 18:12:59,121.0,Tenerife,0.11710166938893256,14.169301996060838
2024-03-17 07:20:50,2024-03-17 07:25:50,300.0,Tenerife,0.006274690811927766,1.8824072435783297
2024-03-17 19:28:45,2024-03-17 19:31:19,154.0,Tenerife,0.08177841001647729,12.593875142537502
2024-03-18 07:05:15,2024-03-18 07:09:53,278.0,Tenerife,0.10375281485466853,28.84328252959785
2024-03-18 19:12:03,2024-03-18 19:16:24,261.0,Tenerife,0.041413408155203356,10.808899528508075
2024-03-19 06:50:06,2024-03-19 06:53:26,200.0,Tenerife,0.07343040027863154,14.686080055726308
2024-03-19 18:55:57,2024-03-19 19:00:55,298.0,Tenerife,0.021971750802238444,6.5475817390670565
2024-03-20 18:40:14,2024-03-20 18:45:06,292.0,Tenerife,0.02639982340862024,7.708748435317111
2024-03-21 07:52:12,2024-03-21 07:55:55,223.0,Tenerife,0.06966680713304041,15.535697990668012
2024-03-21 18:24:52,2024-03-21 18:28:57,245.0,Tenerife,0.08334404626806581,20.419291335676125
2024-03-22 07:35:56,2024-03-22 07:40:41,285.0,Tenerife,0.04217418170710523,12.019641786524991
2024-03-22 18:10:16,2024-03-22 18:12:06,110.0,Tenerife,0.06800918181910713,7.481010000101785
2024-03-23 07:20:01,2024-03-23 07:25:01,300.0,Tenerife,0.008556932062668485,2.5670796188005456
2024-03-23 19:27:50,2024-03-23 19:30:33,163.0,Tenerife,0.08802618942263009,14.348268875888705
2024-03-24 07:04:25,2024-03-24 07:08:59,274.0,Tenerife,0.052140889291935805,14.286603665990409
2024-03-24 19:11:08,2024-03-24 19:15:32,264.0,Tenerife,0.06260833332527835,16.528599997873485
2024-03-25 06:49:14,2024-03-25 06:52:27,193.0,Tenerife,0.11004666880668944,21.239007079691063
2024-03-25 18:55:00,2024-03-25 18:59:59,299.0,Tenerife,0.012706746106825458,3.799317085940812
2024-03-26 18:39:15,2024-03-26 18:44:06,291.0,Tenerife,0.024065029158319762,7.002923485071051
2024-03-27 07:51:08,2024-03-27 07:54:57,229.0,Tenerife,0.04149433843903547,9.502203502539123
2024-03-27 18:23:53,2024-03-27 18:27:53,240.0,Tenerife,0.06301923364891228,15.124616075738947
2024-03-28 07:34:51,2024-03-28 07:39:38,287.0,Tenerife,0.0473190951792426,13.580580316442624
2024-03-28 18:09:21,2024-03-28 18:10:52,91.0,Tenerife,0.08041198582383069,7.3174907099685935
2024-03-29 07:18:55,2024-03-29 07:23:54,299.0,Tenerife,0.009163856739261714,2.7399931650392526
2024-03-29 19:26:36,2024-03-29 19:29:30,174.0,Tenerife,0.08863088639578576,15.421774232866722
2024-03-30 07:03:17,2024-03-30 07:07:48,271.0,Tenerife,0.049343269091333575,13.372025923751398
2024-03-30 19:09:54,2024-03-30 19:14:23,269.0,Tenerife,0.07030923968391341,18.913185474972707
2024-03-31 06:48:07,2024-03-31 06:51:09,182.0,Tenerife,0.15949504970221023,29.028099045802264
2024-03-31 18:53:46,2024-03-31 18:58:45,299.0,Tenerife,0.009623879686143328,2.877540026156855
2024-04-01 08:06:59,2024-04-01 08:08:06,67.0,Tenerife,0.08443991690735932,5.657474432793075
2024-04-01 18:38:00,2024-04-01 18:42:48,288.0,Tenerife,0.0337617794191645,9.723392472719375
2024-04-02 07:49:47,2024-04-02 07:53:42,235.0,Tenerife,0.07384404333044216,17.35335018265391
2024-04-02 18:22:37,2024-04-02 18:26:30,233.0,Tenerife,0.061155071920473494,14.249131757470323
2024-04-03 07:33:29,2024-04-03 07:38:18,289.0,Tenerife,0.03684055021821389,10.646919013063815
2024-04-04 07:17:31,2024-04-04 07:22:29,298.0,Tenerife,0.012500512066517505,3.7251525958222165
2024-04-04 19:25:03,2024-04-04 19:28:11,188.0,Tenerife,0.11357369670988411,21.351854981458214
2024-04-05 07:01:52,2024-04-05 07:06:18,266.0,Tenerife,0.06992706155928038,18.60059837476858
2024-04-05 19:08:23,2024-04-05 19:12:57,274.0,Tenerife,0.058310364504217886,15.9770398741557
2024-04-06 06:46:44,2024-04-06 06:49:31,167.0,Tenerife,0.0922501702635219,15.405778434008159
2024-04-06 18:52:14,2024-04-06 18:57:14,300.0,Tenerife,0.008187268070897303,2.456180421269191
2024-04-07 08:05:10,2024-04-07 08:06:50,100.0,Tenerife,0.10082690459945054,10.082690459945056
2024-04-07 18:36:27,2024-04-07 18:41:13,286.0,Tenerife,0.03499210402294357,10.007741750561859
2024-04-08 07:48:07,2024-04-08 07:52:10,243.0,Tenerife,0.07590668270876956,18.445323898231003
2024-04-08 18:21:04,2024-04-08 18:24:49,225.0,Tenerife,0.061738560390227966,13.891176087801293
2024-04-09 07:31:49,2024-04-09 07:36:40,291.0,Tenerife,0.026606097111203805,7.742374259360306
2024-04-10 07:15:50,2024-04-10 07:20:47,297.0,Tenerife,0.014769978603416268,4.386683645214631
2024-04-10 19:23:13,2024-04-10 19:26:34,201.0,Tenerife,0.08072308646938525,16.225340380346434
2024-04-11 07:00:10,2024-04-11 07:04:29,259.0,Tenerife,0.06393188241402198,16.55835754523169
2024-04-11 19:06:34,2024-04-11 19:11:13,279.0,Tenerife,0.07068545336322621,19.721241488340112
2024-04-12 06:45:05,2024-04-12 06:47:33,148.0,Tenerife,0.0929573443501516,13.757686963822437
2024-04-12 18:50:25,2024-04-12 18:55:25,300.0,Tenerife,0.003905137036433923,1.171541110930177
2024-04-13 08:03:05,2024-04-13 08:05:14,129.0,Tenerife,0.09609259261899787,12.395944447850725
2024-04-13 18:34:37,2024-04-13 18:39:19,282.0,Tenerife,0.046537901962184464,13.12368835333602
2024-04-14 07:46:10,2024-04-14 07:50:20,250.0,Tenerife,0.08671539873381624,21.67884968345406
2024-04-14 18:19:16,2024-04-14 18:22:48,212.0,Tenerife,0.07550685585046797,16.00745344029921
2024-04-15 07:29:51,2024-04-15 07:34:45,294.0,Tenerife,0.02509404970462304,7.377650613159174
2024-04-16 07:13:51,2024-04-16 07:18:46,295.0,Tenerife,0.02324471136405401,6.857189852395933
2024-04-16 19:21:05,2024-04-16 19:24:40,215.0,Tenerife,0.07990861881317554,17.180353044832742
2024-04-17 06:58:12,2024-04-17 07:02:22,250.0,Tenerife,0.06706268857074967,16.765672142687418
2024-04-17 19:04:28,2024-04-17 19:09:11,283.0,Tenerife,0.057168482956583014,16.178680676712993
2024-04-18 06:43:14,2024-04-18 06:45:13,119.0,Tenerife,0.08792375072111651,10.462926335812865
2024-04-18 18:48:19,2024-04-18 18:53:18,299.0,Tenerife,0.004805780966460474,1.4369285089716817
2024-04-19 08:00:45,2024-04-19 08:03:19,154.0,Tenerife,0.07847929091298012,12.085810800598937
2024-04-19 18:32:31,2024-04-19 18:37:06,275.0,Tenerife,0.060297020754907275,16.5816807075995
2024-04-20 07:43:54,2024-04-20 07:48:13,259.0,Tenerife,0.05577429627586471,14.44554273544896
2024-04-20 18:17:12,2024-04-20 18:20:28,196.0,Tenerife,0.09675601836634382,18.964179599803387
2024-04-21 07:27:36,2024-04-21 07:32:32,296.0,Tenerife,0.011153781158767355,3.3015192229951373
2024-04-22 07:11:36,2024-04-22 07:16:27,291.0,Tenerife,0.021196903593166932,6.168298945611577
2024-04-22 19:18:39,2024-04-22 19:22:28,229.0,Tenerife,0.07769115033039388,17.791273425660197
2024-04-23 06:55:57,2024-04-23 06:59:56,239.0,Tenerife,0.07675195016638389,18.34371608976575
2024-04-23 19:02:04,2024-04-23 19:06:52,288.0,Tenerife,0.03583783898817278,10.32129762859376
2024-04-24 06:41:16,2024-04-24 06:42:24,68.0,Tenerife,0.06694175868296699,4.552039590441756
2024-04-24 18:45:55,2024-04-24 18:50:53,298.0,Tenerife,0.010490911950043005,3.1262917611128156
2024-04-25 07:58:07,2024-04-25 08:01:05,178.0,Tenerife,0.1313587194651173,23.381852064790877
2024-04-25 18:30:08,2024-04-25 18:34:35,267.0,Tenerife,0.07405610074753104,19.77297889959079
2024-04-26 07:41:21,2024-04-26 07:45:49,268.0,Tenerife,0.04863414891751236,13.033951909893313
2024-04-26 18:14:53,2024-04-26 18:17:48,175.0,Tenerife,0.07354353471123207,12.870118574465613
2024-04-27 07:25:03,2024-04-27 07:30:01,298.0,Tenerife,0.011376535107804083,3.390207462125617
2024-04-27 19:33:24,2024-04-27 19:34:47,83.0,Tenerife,0.12545836726503817,10.413044482998169
2024-04-28 07:09:03,2024-04-28 07:13:49,286.0,Tenerife,0.037021102417343986,10.58803529136038
2024-04-28 19:15:55,2024-04-28 19:19:58,243.0,Tenerife,0.09759358813982698,23.71524191797796
2024-04-29 06:53:26,2024-04-29 06:57:11,225.0,Tenerife,0.07937740969110607,17.85991718049886
2024-04-29 18:59:22,2024-04-29 19:04:15,293.0,Tenerife,0.028508564536288448,8.353009409132515
2024-04-30 18:43:14,2024-04-30 18:48:10,296.0,Tenerife,0.02353315223034532,6.965813060182215
2024-05-01 07:55:13,2024-05-01 07:58:33,200.0,Tenerife,0.055953897910129356,11.190779582025872
2024-05-01 18:27:28,2024-05-01 18:31:45,257.0,Tenerife,0.06511564932789783,16.73472187726974
2024-05-02 07:38:31,2024-05-02 07:43:07,276.0,Tenerife,0.04798242569385518,13.243149491504028
2024-05-02 18:12:20,2024-05-02 18:14:46,146.0,Tenerife,0.11161892968293806,16.296363733708954
2024-05-03 07:22:13,2024-05-03 07:27:11,298.0,Tenerife,0.0045849121007448665,1.3663038060219703
2024-05-03 19:30:07,2024-05-03 19:32:20,133.0,Tenerife,0.07172627477280893,9.539594544783588
2024-05-04 07:06:13,2024-05-04 07:10:53,280.0,Tenerife,0.06238409427181772,17.467546396108965
2024-05-04 19:12:54,2024-05-04 19:17:10,256.0,Tenerife,0.05843466916818233,14.959275307054677
2024-05-05 06:50:39,2024-05-05 06:54:05,206.0,Tenerife,0.06845877385972908,14.10250741510419
2024-05-05 18:56:23,2024-05-05 19:01:20,297.0,Tenerife,0.025470156226460833,7.564636399258867
2024-05-06 18:40:16,2024-05-06 18:45:08,292.0,Tenerife,0.018837175192074184,5.500455156085662
2024-05-07 07:52:02,2024-05-07 07:55:42,220.0,Tenerife,0.07759845719930093,17.071660583846203
2024-05-07 18:24:33,2024-05-07 18:28:36,243.0,Tenerife,0.07765490240451077,18.870141284296118
2024-05-08 07:35:23,2024-05-08 07:40:07,284.0,Tenerife,0.059835568868666304,16.99330155870123
2024-05-08 18:09:38,2024-05-08 18:11:18,100.0,Tenerife,0.08153133252181234,8.153133252181233
2024-05-09 07:19:05,2024-05-09 07:24:04,299.0,Tenerife,0.00539976843494297,1.614530762047948
2024-05-09 19:26:39,2024-05-09 19:29:29,170.0,Tenerife,0.0871153792934696,14.809614479889833
2024-05-10 07:03:07,2024-05-10 07:07:38,271.0,Tenerife,0.07336844117654535,19.882847558843793
2024-05-10 19:09:36,2024-05-10 19:14:03,267.0,Tenerife,0.09600470102026097,25.63325517240968
