data/output/dynamic_analysis/data_throughput/per_pass_throughput.csv

Start_Time,End_Time,Duration_seconds,Ground_Station,Achievable_Data_Rate_(Gbps),Data_Transmitted_(Gbits)
2023-06-01 07:32:52,2023-06-01 07:37:53,301.0,Tenerife,0.020012739116325957,6.023834474014112
2023-06-02 07:19:23,2023-06-02 07:24:22,299.0,Tenerife,0.014725876915866461,4.403037197844071
2023-06-02 19:27:58,2023-06-02 19:31:27,209.0,Tenerife,0.06126044879946419,12.803433799088015
2023-06-03 07:06:07,2023-06-03 07:10:35,268.0,Tenerife,0.06209739363416117,16.64210149395519
2023-06-03 19:13:51,2023-06-03 19:18:27,276.0,Tenerife,0.056525321546503804,15.60098874683505
2023-06-04 06:53:12,2023-06-04 06:56:22,190.0,Tenerife,0.09844956128246334,18.705416643668034
2023-06-04 19:00:06,2023-06-04 19:05:08,302.0,Tenerife,0.022024740512545292,6.651471634788678
2023-06-05 18:46:36,2023-06-05 18:51:34,298.0,Tenerife,0.02262746259725657,6.742983853982458
2023-06-06 07:59:58,2023-06-06 08:03:27,209.0,Tenerife,0.09201691019312098,19.231534230362286
2023-06-06 18:33:22,2023-06-06 18:37:47,265.0,Tenerife,0.06167123293098596,16.34287672671128
2023-06-07 07:45:55,2023-06-07 07:50:30,275.0,Tenerife,0.04457906720143232,12.259243480393888
2023-06-07 18:20:30,2023-06-07 18:23:38,188.0,Tenerife,0.10343430501313948,19.445649342470222
2023-06-08 07:32:10,2023-06-08 07:37:11,301.0,Tenerife,0.01631883297814558,4.9119687264218195
2023-06-09 07:18:38,2023-06-09 07:23:36,298.0,Tenerife,0.018121985314752027,5.400351623796104
2023-06-09 19:27:09,2023-06-09 19:30:42,213.0,Tenerife,0.06355890533553524,13.538046836469006
2023-06-10 07:05:19,2023-06-10 07:09:44,265.0,Tenerife,0.06354433647965015,16.839249167107287
2023-06-10 19:13:00,2023-06-10 19:17:38,278.0,Tenerife,0.05951621831395446,16.54550869127934
2023-06-11 06:52:23,2023-06-11 06:55:26,183.0,Tenerife,0.09796953892300311,17.928425622909568
2023-06-11 18:59:12,2023-06-11 19:04:15,303.0,Tenerife,0.013932790747179413,4.2216355963953625
2023-06-12 18:45:40,2023-06-12 18:50:37,297.0,Tenerife,0.0335104502814756,9.95260373359825
2023-06-13 07:58:57,2023-06-13 08:02:31,214.0,Tenerife,0.06224352071620484,13.320113433267837
2023-06-13 18:32:24,2023-06-13 18:36:46,262.0,Tenerife,0.05541775913032241,14.519452892144471
2023-06-14 07:44:52,2023-06-14 07:49:29,277.0,Tenerife,0.0738236286720691,20.449145142163143
2023-06-14 18:19:32,2023-06-14 18:22:32,180.0,Tenerife,0.07917705060279895,14.251869108503811
2023-06-15 07:31:05,2023-06-15 07:36:07,302.0,Tenerife,0.007654582981571782,2.3116840604346782
2023-06-16 07:17:31,2023-06-16 07:22:28,297.0,Tenerife,0.021877287343698013,6.49755434107831
2023-06-16 19:25:56,2023-06-16 19:29:35,219.0,Tenerife,0.12497315933193022,27.369121893692718
2023-06-17 07:04:10,2023-06-17 07:08:31,261.0,Tenerife,0.056505178235595775,14.747851519490498
2023-06-17 19:11:46,2023-06-17 19:16:27,281.0,Tenerife,0.043302427093967207,12.167982013404785
2023-06-18 06:51:14,2023-06-18 06:54:07,173.0,Tenerife,0.13732239698551066,23.756774678493343
2023-06-18 18:57:56,2023-06-18 19:02:59,303.0,Tenerife,0.006592597588368789,1.9975570692757432
2023-06-19 18:44:22,2023-06-19 18:49:18,296.0,Tenerife,0.03599745331575292,10.655246181462866
2023-06-20 07:57:33,2023-06-20 08:01:14,221.0,Tenerife,0.05812309050646041,12.845203001927752
2023-06-20 18:31:04,2023-06-20 18:35:21,257.0,Tenerife,0.05221499790789105,13.419254462327999
2023-06-21 07:43:27,2023-06-21 07:48:07,280.0,Tenerife,0.03289199675695646,9.20975909194781
2023-06-21 18:18:13,2023-06-21 18:21:01,168.0,Tenerife,0.07554900920911403,12.692233547131156
2023-06-22 07:29:37,2023-06-22 07:34:40,303.0,Tenerife,0.00808961993647842,2.4511548407529613
2023-06-22 19:39:23,2023-06-22 19:40:30,67.0,Tenerife,0.10333057665477907,6.923148635870199
2023-06-23 07:16:01,2023-06-23 07:20:56,295.0,Tenerife,0.023713842607193267,6.995583569122013
2023-06-23 19:24:19,2023-06-23 19:28:07,228.0,Tenerife,0.06359494301815906,14.499647008140267
2023-06-24 07:02:39,2023-06-24 07:06:54,255.0,Tenerife,0.07956414324295173,20.288856526952696
2023-06-24 19:10:09,2023-06-24 19:14:53,284.0,Tenerife,0.048950264707526704,13.901875176937583
2023-06-25 06:49:45,2023-06-25 06:52:22,157.0,Tenerife,0.13264892748461232,20.825881615084132
2023-06-25 18:56:18,2023-06-25 19:01:21,303.0,Tenerife,0.008535013001888681,2.5861089395722705
2023-06-26 08:10:31,2023-06-26 08:12:06,95.0,Tenerife,0.0928576423641657,8.821476024595743
2023-06-26 18:42:42,2023-06-26 18:47:35,293.0,Tenerife,0.017884804689795638,5.240247774110123
2023-06-27 07:55:45,2023-06-27 07:59:36,231.0,Tenerife,0.08193659821509529,18.927354187687012
2023-06-27 18:29:24,2023-06-27 18:33:33,249.0,Tenerife,0.0633961654578039,15.78564519899317
2023-06-28 07:41:39,2023-06-28 07:46:23,284.0,Tenerife,0.0326957897652082,9.285604293319128
2023-06-28 18:16:35,2023-06-28 18:19:04,149.0,Tenerife,0.07053156026483563,10.509202479460509
2023-06-29 07:27:48,2023-06-29 07:32:51,303.0,Tenerife,0.010273396437218,3.1128391204770542
2023-06-29 19:37:12,2023-06-29 19:38:58,106.0,Tenerife,0.11929218207676016,12.644971300136577
2023-06-30 07:14:10,2023-06-30 07:19:02,292.0,Tenerife,0.037141647733846005,10.845361138283032
2023-06-30 19:22:20,2023-06-30 19:26:18,238.0,Tenerife,0.06389811515693244,15.207751407349923
2023-07-01 07:00:47,2023-07-01 07:04:54,247.0,Tenerife,0.06396561845697991,15.79950775887404
2023-07-01 19:08:09,2023-07-01 19:12:58,289.0,Tenerife,0.04503477519961831,13.015050032689691
2023-07-02 06:47:57,2023-07-02 06:50:11,134.0,Tenerife,0.09718774821034551,13.023158260186298
2023-07-02 18:54:17,2023-07-02 18:59:21,304.0,Tenerife,0.004658007152445504,1.416034174343433
2023-07-03 08:08:13,2023-07-03 08:10:20,127.0,Tenerife,0.10766410863414579,13.673341796536514
2023-07-03 18:40:41,2023-07-03 18:45:29,288.0,Tenerife,0.05548258096702578,15.978983318503424
2023-07-04 07:53:35,2023-07-04 07:57:36,241.0,Tenerife,0.05216669873786041,12.57217439582436
2023-07-04 18:27:22,2023-07-04 18:31:22,240.0,Tenerife,0.07582975823681425,18.199141976835417
2023-07-05 07:39:28,2023-07-05 07:44:17,289.0,Tenerife,0.050324890003798785,14.54389321109785
2023-07-05 18:14:39,2023-07-05 18:16:41,122.0,Tenerife,0.09539890029281013,11.638665835722836
2023-07-06 07:25:36,2023-07-06 07:30:39,303.0,Tenerife,0.0053659650656859015,1.6258874149028282
2023-07-06 19:34:42,2023-07-06 19:37:00,138.0,Tenerife,0.10766965392835168,14.85841224211253
2023-07-07 07:11:57,2023-07-07 07:16:44,287.0,Tenerife,0.02708154803848321,7.772404287044681
2023-07-07 19:19:58,2023-07-07 19:24:06,248.0,Tenerife,0.11863738980428937,29.422072671463763
2023-07-08 06:58:34,2023-07-08 07:02:30,236.0,Tenerife,0.07821475982613939,18.458683318968895
2023-07-08 19:05:47,2023-07-08 19:10:40,293.0,Tenerife,0.039794897431216225,11.659904947346353
2023-07-09 06:45:54,2023-07-09 06:47:30,96.0,Tenerife,0.061844762932754815,5.937097241544462
2023-07-09 18:51:55,2023-07-09 18:56:57,302.0,Tenerife,0.005402477341632708,1.6315481571730779
2023-07-10 08:05:35,2023-07-10 08:08:11,156.0,Tenerife,0.07940811508901724,12.38766595388669
2023-07-10 18:38:17,2023-07-10 18:43:00,283.0,Tenerife,0.06931701166487803,19.61671430116048
2023-07-11 07:51:02,2023-07-11 07:55:14,252.0,Tenerife,0.07710449668515616,19.430333164659356
2023-07-11 18:25:00,2023-07-11 18:28:46,226.0,Tenerife,0.07341047544306509,16.590767450132713
2023-07-12 07:36:54,2023-07-12 07:41:48,294.0,Tenerife,0.03930707342204672,11.556279586081736
2023-07-12 18:12:30,2023-07-12 18:13:46,76.0,Tenerife,0.09734459281435896,7.398189053891281
2023-07-13 07:23:02,2023-07-13 07:28:04,302.0,Tenerife,0.007189936254918268,2.171360748985317
2023-07-13 19:31:51,2023-07-13 19:34:38,167.0,Tenerife,0.06993578835194096,11.679276654774139
2023-07-14 07:09:22,2023-07-14 07:14:03,281.0,Tenerife,0.04431277677322119,12.451890273275154
2023-07-14 19:17:13,2023-07-14 19:21:32,259.0,Tenerife,0.06596292857352754,17.08439850054363
2023-07-15 06:56:01,2023-07-15 06:59:41,220.0,Tenerife,0.07570525323607849,16.65515571193727
2023-07-15 19:03:03,2023-07-15 19:07:59,296.0,Tenerife,0.03014758219835026,8.923684330711676
2023-07-16 18:49:10,2023-07-16 18:54:11,301.0,Tenerife,0.010981975469131192,3.305574616208489
2023-07-17 08:02:35,2023-07-17 08:05:37,182.0,Tenerife,0.07619580702545918,13.867636878633572
2023-07-17 18:35:33,2023-07-17 18:40:08,275.0,Tenerife,0.0519051478443309,14.273915657190997
2023-07-18 07:48:06,2023-07-18 07:52:30,264.0,Tenerife,0.04816307292721185,12.715051252783928
2023-07-18 18:22:17,2023-07-18 18:25:46,209.0,Tenerife,0.08685091289921226,18.15184079593536
2023-07-19 07:33:59,2023-07-19 07:38:57,298.0,Tenerife,0.024169842029467373,7.202612924781278
2023-07-20 07:20:06,2023-07-20 07:25:07,301.0,Tenerife,0.015496430842064044,4.664425683461277
2023-07-20 19:28:39,2023-07-20 19:31:52,193.0,Tenerife,0.06819253242833627,13.161158758668899
2023-07-21 07:06:26,2023-07-21 07:10:59,273.0,Tenerife,0.06285423649808895,17.159206563978284
2023-07-21 19:14:05,2023-07-21 19:18:35,270.0,Tenerife,0.059560491629999296,16.08133274009981
2023-07-22 06:53:08,2023-07-22 06:56:26,198.0,Tenerife,0.06927069473684339,13.715597557894991
2023-07-22 18:59:56,2023-07-22 19:04:56,300.0,Tenerife,0.012502192913526925,3.7506578740580774
2023-07-23 18:46:04,2023-07-23 18:51:01,297.0,Tenerife,0.016865788771066995,5.009139265006897
2023-07-24 07:59:14,2023-07-24 08:02:40,206.0,Tenerife,0.10684409890229352,22.009884373872463
2023-07-24 18:32:27,2023-07-24 18:36:52,265.0,Tenerife,0.06342108818569123,16.806588369208175
2023-07-25 07:44:48,2023-07-25 07:49:23,275.0,Tenerife,0.07200926523368097,19.802547939262265
2023-07-25 18:19:16,2023-07-25 18:22:20,184.0,Tenerife,0.0823846891234507,15.158782798714931
2023-07-26 07:30:41,2023-07-26 07:35:43,302.0,Tenerife,0.011610685869700913,3.506427132649675
2023-07-27 07:16:48,2023-07-27 07:21:45,297.0,Tenerife,0.026296935957881438,7.810189979490787
2023-07-27 19:25:05,2023-07-27 19:28:42,217.0,Tenerife,0.07442950722326158,16.151203067447764
2023-07-28 07:03:09,2023-07-28 07:07:30,261.0,Tenerife,0.07862570692554072,20.521309507566126
2023-07-28 19:10:35,2023-07-28 19:15:16,281.0,Tenerife,0.048408314006055095,13.602736235701482
2023-07-29 06:49:56,2023-07-29 06:52:45,169.0,Tenerife,0.0779899013324349,13.180293325181498
2023-07-29 18:56:27,2023-07-29 19:01:29,302.0,Tenerife,0.01182249878483045,3.5703946330187954
2023-07-30 08:10:40,2023-07-30 08:11:58,78.0,Tenerife,0.08908082171531229,6.948304093794358
2023-07-30 18:42:36,2023-07-30 18:47:29,293.0,Tenerife,0.030303582645215526,8.87894971504815
2023-07-31 07:55:32,2023-07-31 07:59:20,228.0,Tenerife,0.10721184609252954,24.444300909096732
2023-07-31 18:29:01,2023-07-31 18:33:12,251.0,Tenerife,0.06411036554544855,16.091701751907586
2023-08-01 07:41:08,2023-08-01 07:45:53,285.0,Tenerife,0.032432191384249395,9.243174544511078
2023-08-01 18:15:57,2023-08-01 18:18:27,150.0,Tenerife,0.09994203654624614,14.991305481936923
2023-08-02 07:27:02,2023-08-02 07:32:05,303.0,Tenerife,0.005373533080829546,1.6281805234913522
2023-08-02 19:36:18,2023-08-02 19:38:04,106.0,Tenerife,0.10991685028458713,11.651186130166234
2023-08-03 07:13:09,2023-08-03 07:18:00,291.0,Tenerife,0.031353716889451246,9.123931614830314
2023-08-03 19:21:10,2023-08-03 19:25:09,239.0,Tenerife,0.08653203011174537,20.681155196707145
2023-08-04 06:59:32,2023-08-04 07:03:36,244.0,Tenerife,0.06163640831882817,15.039283629794074
2023-08-04 19:06:44,2023-08-04 19:11:33,289.0,Tenerife,0.042553727796157216,12.298027333089436
2023-08-05 06:46:31,2023-08-05 06:48:32,121.0,Tenerife,0.08405880875560941,10.171115859428738
2023-08-05 18:52:37,2023-08-05 18:57:40,303.0,Tenerife,0.006764946955592736,2.049778927544599
2023-08-06 08:06:18,2023-08-06 08:08:39,141.0,Tenerife,0.09393001379585493,13.244131945215544
2023-08-06 18:38:47,2023-08-06 18:43:32,285.0,Tenerife,0.05637609658183257,16.06718752582228
2023-08-07 07:51:28,2023-08-07 07:55:36,248.0,Tenerife,0.0736884193789558,18.274728005981036
2023-08-07 18:25:15,2023-08-07 18:29:07,232.0,Tenerife,0.061191077499802224,14.196329979954116
2023-08-08 07:37:07,2023-08-08 07:41:59,292.0,Tenerife,0.03724034815450579,10.87418166111569
2023-08-08 18:12:28,2023-08-08 18:13:59,91.0,Tenerife,0.061976838651451704,5.639892317282105
2023-08-09 07:23:01,2023-08-09 07:28:04,303.0,Tenerife,0.007067221044198297,2.141367976392084
2023-08-09 19:31:46,2023-08-09 19:34:28,162.0,Tenerife,0.08012001673020105,12.97944271029257
2023-08-10 07:09:09,2023-08-10 07:13:51,282.0,Tenerife,0.042895119469839434,12.09642369049472
2023-08-10 19:16:54,2023-08-10 19:21:12,258.0,Tenerife,0.05519770806503498,14.241008680779027
2023-08-11 06:55:35,2023-08-11 06:59:16,221.0,Tenerife,0.07453963475196314,16.473259280183854
2023-08-11 19:02:31,2023-08-11 19:07:27,296.0,Tenerife,0.03708773463210805,10.977969451103982
2023-08-12 18:48:26,2023-08-12 18:53:26,300.0,Tenerife,0.012880821809730153,3.864246542919046
2023-08-13 08:01:43,2023-08-13 08:04:48,185.0,Tenerife,0.08758966074293546,16.20408723744306
2023-08-13 18:34:37,2023-08-13 18:39:11,274.0,Tenerife,0.06759754927508307,18.521728501372763
2023-08-14 07:47:02,2023-08-14 07:51:28,266.0,Tenerife,0.09114293901066743,24.244021776837535
2023-08-14 18:21:11,2023-08-14 18:24:35,204.0,Tenerife,0.07523793168820275,15.348538064393361
2023-08-15 07:32:43,2023-08-15 07:37:42,299.0,Tenerife,0.019602511910113855,5.861151061124043
2023-08-16 07:18:38,2023-08-16 07:23:38,300.0,Tenerife,0.011747293904789487,3.524188171436846
2023-08-16 19:27:00,2023-08-16 19:30:21,201.0,Tenerife,0.05838746954729377,11.735881379006047
2023-08-17 07:04:48,2023-08-17 07:09:17,269.0,Tenerife,0.06678128155271024,17.964164737679056
2023-08-17 19:12:16,2023-08-17 19:16:50,274.0,Tenerife,0.0532837348854029,14.599743358600396
2023-08-18 06:51:21,2023-08-18 06:54:28,187.0,Tenerife,0.05483821211586812,10.25474566566734
2023-08-18 18:57:56,2023-08-18 19:02:57,301.0,Tenerife,0.011611936611209657,3.495192919974107
2023-08-19 18:43:53,2023-08-19 18:48:49,296.0,Tenerife,0.022215596721993837,6.575816629710175
2023-08-20 07:56:51,2023-08-20 08:00:28,217.0,Tenerife,0.09390337637055521,20.37703267241048
2023-08-20 18:30:07,2023-08-20 18:34:25,258.0,Tenerife,0.08575133702606426,22.12384495272458
2023-08-21 07:42:16,2023-08-21 07:46:55,279.0,Tenerife,0.042072521316652935,11.738233447346168
2023-08-21 18:16:50,2023-08-21 18:19:35,165.0,Tenerife,0.047386262929928286,7.818733383438167
2023-08-22 07:27:58,2023-08-22 07:33:01,303.0,Tenerife,0.0077041881750622345,2.334369017043857
2023-08-22 19:37:23,2023-08-22 19:38:42,79.0,Tenerife,0.12023828461299495,9.498824484426601
2023-08-23 07:13:55,2023-08-23 07:18:48,293.0,Tenerife,0.03248213967939653,9.517266926063185
2023-08-23 19:21:55,2023-08-23 19:25:48,233.0,Tenerife,0.08331421129446415,19.412211231610147
2023-08-24 07:00:07,2023-08-24 07:04:16,249.0,Tenerife,0.08418906592267547,20.96307741474619
2023-08-24 19:07:18,2023-08-24 19:12:05,287.0,Tenerife,0.044877232140467,12.879765624314029
2023-08-25 06:46:53,2023-08-25 06:49:08,135.0,Tenerife,0.08314774088061475,11.22494501888299
2023-08-25 18:53:01,2023-08-25 18:58:04,303.0,Tenerife,0.004426433187862401,1.3412092559223077
2023-08-26 08:06:42,2023-08-26 08:08:53,131.0,Tenerife,0.04620443408195042,6.052780864735505
2023-08-26 18:39:00,2023-08-26 18:43:47,287.0,Tenerife,0.03575297257239134,10.261103128276314
2023-08-27 07:51:39,2023-08-27 07:55:44,245.0,Tenerife,0.08326426894172734,20.3997458907232
2023-08-27 18:25:19,2023-08-27 18:29:13,234.0,Tenerife,0.08304722486054185,19.433050617366796
2023-08-28 07:37:08,2023-08-28 07:41:59,291.0,Tenerife,0.03493272744397173,10.165423686195775
2023-08-28 18:12:21,2023-08-28 18:13:59,98.0,Tenerife,0.06869643323258079,6.732250456792918
2023-08-29 07:22:52,2023-08-29 07:27:55,303.0,Tenerife,0.007083186262714638,2.1462054376025357
2023-08-29 19:31:34,2023-08-29 19:34:14,160.0,Tenerife,0.13006204439147742,20.809927102636387
2023-08-30 07:08:51,2023-08-30 07:13:33,282.0,Tenerife,0.048593108167747485,13.703256503304791
2023-08-30 19:16:31,2023-08-30 19:20:49,258.0,Tenerife,0.08521039698676174,21.984282422584528
2023-08-31 06:55:08,2023-08-31 06:58:49,221.0,Tenerife,0.052733562893591504,11.65411739948372
2023-08-31 19:01:58,2023-08-31 19:06:56,298.0,Tenerife,0.02917094056313293,8.692940287813611
2023-09-01 18:47:45,2023-09-01 18:52:45,300.0,Tenerife,0.013780567217538097,4.1341701652614296
2023-09-02 08:00:56,2023-09-02 08:04:03,187.0,Tenerife,0.09442657501707716,17.657769528193427
2023-09-02 18:33:47,2023-09-02 18:38:20,273.0,Tenerife,0.06499772910418591,17.744380045442757
2023-09-03 07:46:07,2023-09-03 07:50:33,266.0,Tenerife,0.05623168651855577,14.957628613935835
2023-09-03 18:20:13,2023-09-03 18:23:34,201.0,Tenerife,0.09814804444727997,19.727756933903272
2023-09-04 07:31:39,2023-09-04 07:36:38,299.0,Tenerife,0.017710698245044357,5.295498775268263
2023-09-05 07:17:25,2023-09-05 07:22:24,299.0,Tenerife,0.015725408836343022,4.701897242066564
2023-09-05 19:25:38,2023-09-05 19:29:06,208.0,Tenerife,0.0658850842098628,13.704097515651464
2023-09-06 07:03:27,2023-09-06 07:07:51,264.0,Tenerife,0.05848403363710867,15.439784880196688
2023-09-06 19:10:47,2023-09-06 19:15:24,277.0,Tenerife,0.05000006247830191,13.85001730648963
2023-09-07 06:49:54,2023-09-07 06:52:50,176.0,Tenerife,0.07745551764591013,13.632171105680184
2023-09-07 18:56:19,2023-09-07 19:01:21,302.0,Tenerife,0.016955267656067533,5.120490832132395
2023-09-08 08:10:30,2023-09-08 08:11:31,61.0,Tenerife,0.062110163268945466,3.788719959405673
2023-09-08 18:42:08,2023-09-08 18:47:02,294.0,Tenerife,0.04153142892821936,12.21024010489649
2023-09-09 07:54:56,2023-09-09 07:58:42,226.0,Tenerife,0.059245303318017674,13.389438549871993
2023-09-09 18:28:16,2023-09-09 18:32:27,251.0,Tenerife,0.06226262664569537,15.627919288069537
2023-09-10 07:40:14,2023-09-10 07:44:57,283.0,Tenerife,0.04358961714964114,12.33586165334844
2023-09-10 18:14:55,2023-09-10 18:17:22,147.0,Tenerife,0.09114611267911993,13.39847856383063
2023-09-11 07:25:49,2023-09-11 07:30:51,302.0,Tenerife,0.005488600024752925,1.6575572074753833
2023-09-11 19:34:49,2023-09-11 19:36:47,118.0,Tenerife,0.15831562874146188,18.6812441914925
2023-09-12 07:11:38,2023-09-12 07:16:27,289.0,Tenerife,0.03748889552882183,10.834290807829507
2023-09-12 19:19:26,2023-09-12 19:23:30,244.0,Tenerife,0.050798978113346174,12.394950659656468
2023-09-13 06:57:45,2023-09-13 07:01:42,237.0,Tenerife,0.06712725413855146,15.909159230836696
2023-09-13 19:04:43,2023-09-13 19:09:35,292.0,Tenerife,0.05852814138502896,17.090217284428455
2023-09-14 06:44:35,2023-09-14 06:46:10,95.0,Tenerife,0.10366710801846729,9.848375261754393
2023-09-14 18:50:19,2023-09-14 18:55:22,303.0,Tenerife,0.01310756308389423,3.9715916144199515
2023-09-15 08:03:42,2023-09-15 08:06:20,158.0,Tenerife,0.055651944341344635,8.79300720593245
2023-09-15 18:36:13,2023-09-15 18:40:53,280.0,Tenerife,0.03931133005729283,11.007172416041993
2023-09-16 07:48:38,2023-09-16 07:52:53,255.0,Tenerife,0.09790801377210595,24.966543511887018
2023-09-16 18:22:27,2023-09-16 18:26:06,219.0,Tenerife,0.06356561109781357,13.92086883042117
2023-09-17 07:34:01,2023-09-17 07:38:56,295.0,Tenerife,0.03621908282233993,10.68462943259028
2023-09-18 07:19:39,2023-09-18 07:24:39,300.0,Tenerife,0.011272104474863534,3.38163134245906
2023-09-18 19:27:59,2023-09-18 19:31:08,189.0,Tenerife,0.13083710422630163,24.728212698771006
2023-09-19 07:05:32,2023-09-19 07:10:04,272.0,Tenerife,0.06868671918486548,18.68278761828341
2023-09-19 19:12:56,2023-09-19 19:17:26,270.0,Tenerife,0.06870696385769408,18.5508802415774
2023-09-20 06:51:47,2023-09-20 06:55:03,196.0,Tenerife,0.10333969898226017,20.25458100052299
2023-09-20 18:58:19,2023-09-20 19:03:20,301.0,Tenerife,0.010445340518651697,3.144047496114161
2023-09-21 18:44:00,2023-09-21 18:48:57,297.0,Tenerife,0.02209684909918477,6.562764182457877
2023-09-22 07:56:52,2023-09-22 08:00:24,212.0,Tenerife,0.060798188067505775,12.889215870311224
2023-09-22 18:29:58,2023-09-22 18:34:18,260.0,Tenerife,0.07928530558739823,20.61417945272354
2023-09-23 07:42:00,2023-09-23 07:46:38,278.0,Tenerife,0.04914581850153737,13.662537543427389
2023-09-23 18:16:25,2023-09-23 18:19:13,168.0,Tenerife,0.07020800539279953,11.79494490599032
2023-09-24 07:27:27,2023-09-24 07:32:28,301.0,Tenerife,0.012607941082566585,3.7949902658525425
2023-09-24 19:36:44,2023-09-24 19:38:03,79.0,Tenerife,0.15052307063086331,11.891322579838201
2023-09-25 07:13:09,2023-09-25 07:18:00,291.0,Tenerife,0.038812999742488336,11.294582925064104
2023-09-25 19:21:00,2023-09-25 19:24:54,234.0,Tenerife,0.07423995943092644,17.37215050683679
2023-09-26 06:59:07,2023-09-26 07:03:12,245.0,Tenerife,0.07007796768056393,17.169102081738163
2023-09-26 19:06:07,2023-09-26 19:10:56,289.0,Tenerife,0.021236932374203526,6.13747345614482
2023-09-27 06:45:42,2023-09-27 06:47:44,122.0,Tenerife,0.09509166392030112,11.601182998276737
2023-09-27 18:51:36,2023-09-27 18:56:39,303.0,Tenerife,0.006502799630199981,1.9703482879505942
2023-09-28 08:05:03,2023-09-28 08:07:24,141.0,Tenerife,0.07394593977589176,10.426377508400737
2023-09-28 18:37:22,2023-09-28 18:42:06,284.0,Tenerife,0.05707740811251623,16.20998390395461
2023-09-29 07:49:48,2023-09-29 07:53:57,249.0,Tenerife,0.060629690956923166,15.096793048273868
2023-09-29 18:23:28,2023-09-29 18:27:14,226.0,Tenerife,0.053081825054922545,11.996492462412494
2023-09-30 07:35:03,2023-09-30 07:39:56,293.0,Tenerife,0.029669012278698555,8.693020597658677
2023-10-01 07:20:34,2023-10-01 07:25:34,300.0,Tenerife,0.010301336144665467,3.09040084339964
2023-10-01 19:28:57,2023-10-01 19:31:56,179.0,Tenerife,0.11742296335100331,21.018710439829594
2023-10-02 07:06:19,2023-10-02 07:10:55,276.0,Tenerife,0.04786022173194991,13.209421198018175
2023-10-02 19:13:45,2023-10-02 19:18:11,266.0,Tenerife,0.08131614364302064,21.63009420904349
2023-10-03 06:52:27,2023-10-03 06:55:50,203.0,Tenerife,0.07373250979187164,14.967699487749943
2023-10-03 18:59:00,2023-10-03 19:03:59,299.0,Tenerife,0.02076215642439136,6.207884770893017
2023-10-04 18:44:34,2023-10-04 18:49:31,297.0,Tenerife,0.027427214377854628,8.145882670222823
2023-10-05 07:57:26,2023-10-05 08:00:52,206.0,Tenerife,0.08129285871826332,16.746328895962243
2023-10-05 18:30:25,2023-10-05 18:34:48,263.0,Tenerife,0.08365929843341965,22.00239548798937
2023-10-06 07:42:26,2023-10-06 07:47:01,275.0,Tenerife,0.05288901095259791,14.544478011964424
2023-10-06 18:16:45,2023-10-06 18:19:38,173.0,Tenerife,0.07362082021905705,12.73640189789687
2023-10-07 07:27:46,2023-10-07 07:32:47,301.0,Tenerife,0.010855936376489971,3.267636849323481
2023-10-07 19:37:08,2023-10-07 19:38:11,63.0,Tenerife,0.07875060703086824,4.961288242944699
2023-10-08 07:13:21,2023-10-08 07:18:14,293.0,Tenerife,0.025368180258609055,7.432876815772453
2023-10-08 19:21:11,2023-10-08 19:25:03,232.0,Tenerife,0.07041408279449574,16.33606720832301
2023-10-09 06:59:13,2023-10-09 07:03:20,247.0,Tenerife,0.04384784552917044,10.8304178457051
2023-10-09 19:06:12,2023-10-09 19:10:59,287.0,Tenerife,0.042482917339376224,12.192597276400976
2023-10-10 06:45:41,2023-10-10 06:47:46,125.0,Tenerife,0.09603668080203635,12.004585100254545
2023-10-10 18:51:34,2023-10-10 18:56:36,302.0,Tenerife,0.0056017383739173695,1.6917249889230455
2023-10-11 08:04:58,2023-10-11 08:07:18,140.0,Tenerife,0.10438091448619005,14.613328028066606
2023-10-11 18:37:13,2023-10-11 18:41:57,284.0,Tenerife,0.04997749390380225,14.19360826867984
2023-10-12 07:49:36,2023-10-12 07:53:45,249.0,Tenerife,0.08551976504374284,21.294421495891967
2023-10-12 18:23:14,2023-10-12 18:27:00,226.0,Tenerife,0.1213813238100716,27.432179181076183
2023-10-13 07:34:45,2023-10-13 07:39:38,293.0,Tenerife,0.04210753778815663,12.337508571929892
2023-10-14 07:20:10,2023-10-14 07:25:11,301.0,Tenerife,0.009966481962604133,2.999911070743844
2023-10-14 19:28:30,2023-10-14 19:31:30,180.0,Tenerife,0.12506275218347387,22.511295393025296
2023-10-15 07:05:50,2023-10-15 07:10:24,274.0,Tenerife,0.06541973766553338,17.925008120356146
2023-10-15 19:13:12,2023-10-15 19:17:38,266.0,Tenerife,0.07154933987514683,19.03212440678906
2023-10-16 06:51:52,2023-10-16 06:55:12,200.0,Tenerife,0.1094897947513911,21.89795895027822
2023-10-16 18:58:21,2023-10-16 19:03:20,299.0,Tenerife,0.020213925256485493,6.043963651689162
2023-10-17 18:43:50,2023-10-17 18:48:46,296.0,Tenerife,0.025333672412513716,7.498767034104059
2023-10-18 07:56:35,2023-10-18 08:00:06,211.0,Tenerife,0.08613553380062894,18.17459763193271
2023-10-18 18:29:36,2023-10-18 18:33:55,259.0,Tenerife,0.06716044663826203,17.394555679309864
2023-10-19 07:41:31,2023-10-19 07:46:08,277.0,Tenerife,0.0665607818229059,18.437336564944935
2023-10-19 18:15:52,2023-10-19 18:18:37,165.0,Tenerife,0.0739441447942565,12.200783891052321
2023-10-20 07:26:45,2023-10-20 07:31:47,302.0,Tenerife,0.009301871694142438,2.809165251631016
2023-10-20 19:35:54,2023-10-20 19:37:18,84.0,Tenerife,0.07274113459332125,6.110255305838985
2023-10-21 07:12:15,2023-10-21 07:17:06,291.0,Tenerife,0.02737314699535996,7.965585775649748
2023-10-21 19:19:59,2023-10-21 19:23:56,237.0,Tenerife,0.07455690275518842,17.669985952979655
2023-10-22 06:58:02,2023-10-22 07:02:05,243.0,Tenerife,0.07061610879962764,17.159714438309514
2023-10-22 19:04:56,2023-10-22 19:09:44,288.0,Tenerife,0.05091124669983813,14.662439049553383
2023-10-23 06:44:31,2023-10-23 06:46:19,108.0,Tenerife,0.08145663661994214,8.797316754953751
2023-10-23 18:50:13,2023-10-23 18:55:14,301.0,Tenerife,0.006187723925581065,1.8625049015999005
2023-10-24 08:03:26,2023-10-24 08:06:00,154.0,Tenerife,0.0836042622958457,12.875056393560236
2023-10-24 18:35:48,2023-10-24 18:40:28,280.0,Tenerife,0.04795926424060103,13.428593987368288
2023-10-25 07:48:03,2023-10-25 07:52:17,254.0,Tenerife,0.06912084730956232,17.55669521662883
2023-10-25 18:21:45,2023-10-25 18:25:22,217.0,Tenerife,0.0541243184474954,11.744977103106503
2023-10-26 07:33:07,2023-10-26 07:38:02,295.0,Tenerife,0.027178802955322972,8.017746871820277
2023-10-27 07:18:27,2023-10-27 07:23:27,300.0,Tenerife,0.016204905571703974,4.861471671511192
2023-10-27 19:26:37,2023-10-27 19:29:50,193.0,Tenerife,0.09663943689790387,18.65141132129545
2023-10-28 07:04:03,2023-10-28 07:08:33,270.0,Tenerife,0.06551987663738307,17.69036669209343
2023-10-28 19:11:17,2023-10-28 19:15:48,271.0,Tenerife,0.05468718470081527,14.820227053920938
2023-10-29 06:50:04,2023-10-29 06:53:10,186.0,Tenerife,0.08185695132771145,15.225392946954328
2023-10-29 18:56:23,2023-10-29 19:01:23,300.0,Tenerife,0.012423658267448621,3.7270974802345864
2023-10-30 18:41:47,2023-10-30 18:46:40,293.0,Tenerife,0.03102435950699562,9.090137335549716
2023-10-31 07:54:22,2023-10-31 07:58:05,223.0,Tenerife,0.06718516977060628,14.9822928588452
2023-10-31 18:27:31,2023-10-31 18:31:41,250.0,Tenerife,0.060818882597823004,15.20472064945575
2023-11-01 07:39:14,2023-11-01 07:43:57,283.0,Tenerife,0.0578105964017862,16.360398781705495
2023-11-01 18:13:48,2023-11-01 18:16:10,142.0,Tenerife,0.09146261232724183,12.987690950468338
2023-11-02 07:24:25,2023-11-02 07:29:27,302.0,Tenerife,0.007911134592923799,2.3891626470629874
2023-11-02 19:33:10,2023-11-02 19:35:15,125.0,Tenerife,0.0801257490140944,10.0157186267618
2023-11-03 07:09:51,2023-11-03 07:14:38,287.0,Tenerife,0.06408599172212012,18.392679624248473
2023-11-03 19:17:24,2023-11-03 19:21:32,248.0,Tenerife,0.08006838793311133,19.85696020741161
2023-11-04 06:55:37,2023-11-04 06:59:26,229.0,Tenerife,0.09013091624641704,20.639979820429506
2023-11-04 19:02:18,2023-11-04 19:07:11,293.0,Tenerife,0.043854149273563604,12.849265737154134
2023-11-05 18:47:33,2023-11-05 18:52:32,299.0,Tenerife,0.00792629323339302,2.3699616767845124
2023-11-06 08:00:30,2023-11-06 08:03:29,179.0,Tenerife,0.08744440493953486,15.652548484176739
2023-11-06 18:33:05,2023-11-06 18:37:37,272.0,Tenerife,0.04098720889123325,11.148520818415443
2023-11-07 07:45:07,2023-11-07 07:49:33,266.0,Tenerife,0.07764247815899541,20.652899190292782
2023-11-07 18:19:02,2023-11-07 18:22:20,198.0,Tenerife,0.10686131130778484,21.1585396389414
2023-11-08 07:30:09,2023-11-08 07:35:08,299.0,Tenerife,0.01575107314612662,4.709570870691859
2023-11-09 07:15:26,2023-11-09 07:20:23,297.0,Tenerife,0.01970389009121505,5.85205535709087
2023-11-09 19:23:20,2023-11-09 19:26:54,214.0,Tenerife,0.1020272440466627,21.833830225985817
2023-11-10 07:01:00,2023-11-10 07:05:18,258.0,Tenerife,0.058759413814457546,15.159928764130047
2023-11-10 19:08:00,2023-11-10 19:12:41,281.0,Tenerife,0.04684882024146359,13.164518487851272
2023-11-11 06:47:04,2023-11-11 06:49:39,155.0,Tenerife,0.08272048145755778,12.821674625921455
2023-11-11 18:53:04,2023-11-11 18:58:05,301.0,Tenerife,0.004336120321388759,1.3051722167380164
2023-11-12 08:06:33,2023-11-12 08:08:25,112.0,Tenerife,0.10811568828490606,12.108957087909479
2023-11-12 18:38:26,2023-11-12 18:43:13,287.0,Tenerife,0.036623503508014174,10.510945506800068
2023-11-13 07:50:46,2023-11-13 07:54:48,242.0,Tenerife,0.08470568831508916,20.49877657225158
2023-11-13 18:24:09,2023-11-13 18:28:03,234.0,Tenerife,0.053016452717868486,12.405849935981227
2023-11-14 07:35:38,2023-11-14 07:40:28,290.0,Tenerife,0.04402799560397199,12.768118725151876
2023-11-14 18:10:41,2023-11-14 18:12:07,86.0,Tenerife,0.10417937897972321,8.959426592256197
2023-11-15 07:20:46,2023-11-15 07:25:48,302.0,Tenerife,0.006542385621526449,1.9758004577009876
2023-11-15 19:29:05,2023-11-15 19:31:53,168.0,Tenerife,0.07652556732218288,12.856295310126724
2023-11-16 07:06:10,2023-11-16 07:10:48,278.0,Tenerife,0.062016899229990236,17.240697985937285
2023-11-16 19:13:27,2023-11-16 19:17:50,263.0,Tenerife,0.07603921959040413,19.998314752276286
2023-11-17 06:51:57,2023-11-17 06:55:22,205.0,Tenerife,0.0707787127946382,14.509636122900831
2023-11-17 18:58:21,2023-11-17 19:03:19,298.0,Tenerife,0.014695009081977805,4.379112706429386
2023-11-18 18:43:34,2023-11-18 18:48:30,296.0,Tenerife,0.012248988617025456,3.625700630639535
2023-11-19 07:56:12,2023-11-19 07:59:42,210.0,Tenerife,0.08348074173833689,17.53095576505075
2023-11-19 18:29:06,2023-11-19 18:33:24,258.0,Tenerife,0.05066543562883951,13.071682392240593
2023-11-20 07:40:52,2023-11-20 07:45:30,278.0,Tenerife,0.058536407349961225,16.27312124328922
2023-11-20 18:15:08,2023-11-20 18:17:50,162.0,Tenerife,0.0776843006317817,12.584856702348635
2023-11-21 07:25:52,2023-11-21 07:30:53,301.0,Tenerife,0.006133887540941863,1.8463001498235005
2023-11-21 19:34:47,2023-11-21 19:36:21,94.0,Tenerife,0.05952838000782382,5.595667720735439
2023-11-22 07:11:07,2023-11-22 07:15:57,290.0,Tenerife,0.02852369995735516,8.271872987632996
2023-11-22 19:18:41,2023-11-22 19:22:40,239.0,Tenerife,0.08165322181963736,19.51512001489333
2023-11-23 06:56:41,2023-11-23 07:00:39,238.0,Tenerife,0.08547778363653258,20.34371250549475
2023-11-23 19:03:23,2023-11-23 19:08:13,290.0,Tenerife,0.04047032258803799,11.736393550531018
2023-11-24 06:43:04,2023-11-24 06:44:29,85.0,Tenerife,0.10136715446271587,8.616208129330849
2023-11-24 18:48:27,2023-11-24 18:53:27,300.0,Tenerife,0.012726353307917555,3.8179059923752665
2023-11-25 08:01:25,2023-11-25 08:04:14,169.0,Tenerife,0.08603040375777567,14.539138235064087
2023-11-25 18:33:49,2023-11-25 18:38:25,276.0,Tenerife,0.05168450015530862,14.264922042865178
2023-11-26 07:45:50,2023-11-26 07:50:12,262.0,Tenerife,0.07116550522631052,18.64536236929336
2023-11-26 18:19:35,2023-11-26 18:23:00,205.0,Tenerife,0.09121317594103848,18.69870106791289
2023-11-27 07:30:42,2023-11-27 07:35:39,297.0,Tenerife,0.03136821845046728,9.316360879788782
2023-11-28 07:15:49,2023-11-28 07:20:47,298.0,Tenerife,0.0239770699152375,7.145166834740775
2023-11-28 19:23:40,2023-11-28 19:27:10,210.0,Tenerife,0.0975438211623347,20.48420244409029
2023-11-29 07:01:13,2023-11-29 07:05:34,261.0,Tenerife,0.06448851441306033,16.831502261808748
2023-11-29 19:08:10,2023-11-29 19:12:50,280.0,Tenerife,0.04382999353371068,12.272398189438992
2023-11-30 06:47:07,2023-11-30 06:49:47,160.0,Tenerife,0.07230629928850042,11.569007886160069
2023-11-30 18:53:05,2023-11-30 18:58:06,301.0,Tenerife,0.005665799465286784,1.705405639051322
2023-12-01 08:06:31,2023-12-01 08:08:19,108.0,Tenerife,0.07375162003544794,7.965174963828377
2023-12-01 18:38:18,2023-12-01 18:43:05,287.0,Tenerife,0.028844778345133854,8.278451385053415
2023-12-02 07:50:34,2023-12-02 07:54:34,240.0,Tenerife,0.07460216692467982,17.904520061923158
2023-12-02 18:23:52,2023-12-02 18:27:46,234.0,Tenerife,0.11233351686803884,26.28604294712109
2023-12-03 07:35:16,2023-12-03 07:40:06,290.0,Tenerife,0.04161707913781978,12.068952949967736
2023-12-03 18:10:16,2023-12-03 18:11:40,84.0,Tenerife,0.07822273563874133,6.570709793654272
2023-12-04 07:20:16,2023-12-04 07:25:17,301.0,Tenerife,0.008485253177520836,2.5540612064337718
2023-12-04 19:28:27,2023-12-04 19:31:19,172.0,Tenerife,0.08459117883348545,14.549682759359499
2023-12-05 07:05:31,2023-12-05 07:10:08,277.0,Tenerife,0.047113280378584664,13.050378664867951
2023-12-05 19:12:42,2023-12-05 19:17:07,265.0,Tenerife,0.08211163674510913,21.75958373745392
2023-12-06 06:51:10,2023-12-06 06:54:31,201.0,Tenerife,0.058273365231389894,11.71294641150937
2023-12-06 18:57:27,2023-12-06 19:02:26,299.0,Tenerife,0.026195701803424384,7.832514839223891
2023-12-07 18:42:32,2023-12-07 18:47:27,295.0,Tenerife,0.025978024434473047,7.663517208169548
2023-12-08 07:55:03,2023-12-08 07:58:38,215.0,Tenerife,0.07096880786159471,15.258293690242862
2023-12-08 18:27:56,2023-12-08 18:32:11,255.0,Tenerife,0.07385823174761239,18.83384909564116
2023-12-09 07:39:35,2023-12-09 07:44:15,280.0,Tenerife,0.052473492328728485,14.692577852043977
2023-12-09 18:13:54,2023-12-09 18:16:25,151.0,Tenerife,0.09315331994258969,14.066151311331044
2023-12-10 07:24:27,2023-12-10 07:29:28,301.0,Tenerife,0.007833211051499023,2.3577965265012057
2023-12-10 19:33:05,2023-12-10 19:35:03,118.0,Tenerife,0.09070511285910143,10.703203317373967
2023-12-11 07:09:35,2023-12-11 07:14:22,287.0,Tenerife,0.04709893019608522,13.517392966276459
2023-12-11 19:16:58,2023-12-11 19:21:05,247.0,Tenerife,0.07055005717407738,17.42586412199711
2023-12-12 06:55:03,2023-12-12 06:58:52,229.0,Tenerife,0.09949404789072423,22.78413696697585
2023-12-12 19:01:34,2023-12-12 19:06:28,294.0,Tenerife,0.02377937232112276,6.991135462410092
2023-12-13 18:46:31,2023-12-13 18:51:31,300.0,Tenerife,0.024634876214635937,7.3904628643907815
2023-12-14 07:59:17,2023-12-14 08:02:21,184.0,Tenerife,0.07477230291274159,13.758103735944452
2023-12-14 18:31:46,2023-12-14 18:36:17,271.0,Tenerife,0.061071424663077904,16.550356083694112
2023-12-15 07:43:37,2023-12-15 07:48:05,268.0,Tenerife,0.04870707610055519,13.053496394948791
2023-12-15 18:17:29,2023-12-15 18:20:39,190.0,Tenerife,0.09220864485314718,17.519642522097964
2023-12-16 07:28:22,2023-12-16 07:33:21,299.0,Tenerife,0.011127311196715164,3.3270660478178344
2023-12-17 07:13:23,2023-12-17 07:18:17,294.0,Tenerife,0.023450905269878537,6.89456614934429
2023-12-17 19:21:00,2023-12-17 19:24:45,225.0,Tenerife,0.09440521285803728,21.241172893058387
2023-12-18 06:58:41,2023-12-18 07:02:51,250.0,Tenerife,0.056124829621084366,14.031207405271092
2023-12-18 19:05:25,2023-12-18 19:10:11,286.0,Tenerife,0.04024387252633691,11.509747542532356
2023-12-19 06:44:38,2023-12-19 06:46:43,125.0,Tenerife,0.09229042894168964,11.536303617711205
2023-12-19 18:50:14,2023-12-19 18:55:16,302.0,Tenerife,0.006277890427114741,1.8959229089886518
2023-12-20 08:03:18,2023-12-20 08:05:43,145.0,Tenerife,0.07662975159952422,11.111313981931012
2023-12-20 18:35:22,2023-12-20 18:40:03,281.0,Tenerife,0.03352430549378436,9.420329843753404
2023-12-21 07:47:24,2023-12-21 07:51:37,253.0,Tenerife,0.08612829592610641,21.79045886930492
2023-12-21 18:20:53,2023-12-21 18:24:30,217.0,Tenerife,0.061064896229322776,13.251082481763042
2023-12-22 07:32:01,2023-12-22 07:36:56,295.0,Tenerife,0.022606581075313565,6.668941417217502
2023-12-23 07:16:55,2023-12-23 07:21:53,298.0,Tenerife,0.01948942587418382,5.807848910506777
2023-12-23 19:24:46,2023-12-23 19:28:06,200.0,Tenerife,0.07247073073184185,14.49414614636837
2023-12-24 07:02:06,2023-12-24 07:06:30,264.0,Tenerife,0.06262560437013982,16.533159553716914
2023-12-24 19:09:00,2023-12-24 19:13:36,276.0,Tenerife,0.03526059005838053,9.731922856113025
2023-12-25 06:47:45,2023-12-25 06:50:35,170.0,Tenerife,0.10041124821757115,17.069912196987097
2023-12-25 18:53:41,2023-12-25 18:58:42,301.0,Tenerife,0.008302584605502204,2.4990779662561637
2023-12-26 08:07:10,2023-12-26 08:08:39,89.0,Tenerife,0.09537056010924125,8.487979849722471
2023-12-26 18:38:42,2023-12-26 18:43:31,289.0,Tenerife,0.030024647425343855,8.677123105924373
2023-12-27 07:50:54,2023-12-27 07:54:50,236.0,Tenerife,0.054440626501518326,12.847987854358324
2023-12-27 18:24:03,2023-12-27 18:28:01,238.0,Tenerife,0.11636613387180168,27.695139861488805
2023-12-28 07:35:23,2023-12-28 07:40:12,289.0,Tenerife,0.028318440370603007,8.184029267104268
2023-12-28 18:10:13,2023-12-28 18:11:45,92.0,Tenerife,0.13535106845721254,12.452298298063553
2023-12-29 07:20:11,2023-12-29 07:25:11,300.0,Tenerife,0.00871189162640566,2.613567487921698
2023-12-29 19:28:17,2023-12-29 19:31:07,170.0,Tenerife,0.07612986615129431,12.942077245720034
2023-12-30 07:05:15,2023-12-30 07:09:50,275.0,Tenerife,0.04522634082045572,12.437243725625324
2023-12-30 19:12:19,2023-12-30 19:16:44,265.0,Tenerife,0.04955485395315752,13.132036297586742
2023-12-31 06:50:42,2023-12-31 06:54:01,199.0,Tenerife,0.11819431404029634,23.520668494018974
2023-12-31 18:56:52,2023-12-31 19:01:51,299.0,Tenerife,0.01935480322280914,5.787086163619933
2024-01-01 18:41:46,2024-01-01 18:46:41,295.0,Tenerife,0.021031914358164747,6.2044147356586
2024-01-02 07:54:08,2024-01-02 07:57:45,217.0,Tenerife,0.08634160326708158,18.736127908956703
2024-01-02 18:26:59,2024-01-02 18:31:12,253.0,Tenerife,0.07123676158633926,18.022900681343835
2024-01-03 07:38:29,2024-01-03 07:43:10,281.0,Tenerife,0.05625515506460789,15.807698573154818
2024-01-03 18:12:49,2024-01-03 18:15:10,141.0,Tenerife,0.06640245274193464,9.362745836612785
2024-01-04 07:23:10,2024-01-04 07:28:11,301.0,Tenerife,0.004707065436148704,1.4168266962807599
2024-01-04 19:31:35,2024-01-04 19:33:48,133.0,Tenerife,0.08501490780623269,11.306982738228948
2024-01-05 07:08:08,2024-01-05 07:12:51,283.0,Tenerife,0.04394678585240437,12.436940396230437
2024-01-05 19:15:21,2024-01-05 19:19:33,252.0,Tenerife,0.07300545520706865,18.3973747121813
2024-01-06 06:53:26,2024-01-06 06:57:06,220.0,Tenerife,0.07127460610095364,15.680413342209802
2024-01-06 18:59:47,2024-01-06 19:04:42,295.0,Tenerife,0.021129010738183067,6.233058167764005
2024-01-07 18:44:34,2024-01-07 18:49:32,298.0,Tenerife,0.019997316155419533,5.959200214315021
2024-01-08 07:57:06,2024-01-08 08:00:22,196.0,Tenerife,0.09034074148752035,17.706785331553988
2024-01-08 18:29:40,2024-01-08 18:34:04,264.0,Tenerife,0.07394672863299695,19.521936359111194
2024-01-09 07:41:18,2024-01-09 07:45:51,273.0,Tenerife,0.061015986265204096,16.657364250400718
2024-01-09 18:15:17,2024-01-09 18:18:08,171.0,Tenerife,0.08800867590025296,15.049483578943258
2024-01-10 07:25:53,2024-01-10 07:30:53,300.0,Tenerife,0.00856287889128511,2.568863667385533
2024-01-10 19:34:42,2024-01-10 19:36:04,82.0,Tenerife,0.11873882788762495,9.736583886785246
2024-01-11 07:10:44,2024-01-11 07:15:34,290.0,Tenerife,0.052383214381822994,15.191132170728668
2024-01-11 19:18:06,2024-01-11 19:22:05,239.0,Tenerife,0.057599987165094645,13.76639693245762
2024-01-12 06:55:56,2024-01-12 06:59:51,235.0,Tenerife,0.065812518288734,15.465941797852489
2024-01-12 19:02:25,2024-01-12 19:07:15,290.0,Tenerife,0.031142428654288533,9.031304309743675
2024-01-13 06:42:02,2024-01-13 06:43:09,67.0,Tenerife,0.0868117775920411,5.816389098666754
2024-01-13 18:47:05,2024-01-13 18:52:05,300.0,Tenerife,0.010981545483667966,3.29446364510039
2024-01-14 07:59:47,2024-01-14 08:02:41,174.0,Tenerife,0.08602460505784075,14.968281280064291
2024-01-14 18:32:05,2024-01-14 18:36:37,272.0,Tenerife,0.0827820485881779,22.51671721598439
2024-01-15 07:43:50,2024-01-15 07:48:14,264.0,Tenerife,0.062241330328592394,16.431711206748393
2024-01-15 18:17:32,2024-01-15 18:20:45,193.0,Tenerife,0.12940241193433222,24.97466550332612
2024-01-16 07:28:19,2024-01-16 07:33:17,298.0,Tenerife,0.012669446835744448,3.7754951570518456
2024-01-17 07:13:05,2024-01-17 07:17:58,293.0,Tenerife,0.01973168609796051,5.781384026702429
2024-01-17 19:20:35,2024-01-17 19:24:19,224.0,Tenerife,0.10390331977288236,23.27434362912565
2024-01-18 06:58:09,2024-01-18 07:02:17,248.0,Tenerife,0.04453369336346647,11.044355954139684
2024-01-18 19:04:45,2024-01-18 19:09:31,286.0,Tenerife,0.04177672895486317,11.948144481090866
2024-01-19 06:43:54,2024-01-19 06:45:51,117.0,Tenerife,0.07968810134832234,9.323507857753716
2024-01-19 18:49:20,2024-01-19 18:54:20,300.0,Tenerife,0.005837356429340218,1.7512069288020653
2024-01-20 08:02:12,2024-01-20 08:04:42,150.0,Tenerife,0.06598973891387981,9.898460837081972
2024-01-20 18:34:14,2024-01-20 18:38:53,279.0,Tenerife,0.06609328025045332,18.440025189876476
2024-01-21 07:46:05,2024-01-21 07:50:20,255.0,Tenerife,0.062055761813416085,15.824219262421103
2024-01-21 18:19:33,2024-01-21 18:23:02,209.0,Tenerife,0.1102204148138135,23.036066696087026
2024-01-22 07:30:28,2024-01-22 07:35:23,295.0,Tenerife,0.028970214169680146,8.546213180055643
2024-01-23 07:15:09,2024-01-23 07:20:05,296.0,Tenerife,0.02113480217560412,6.25590144397882
2024-01-23 19:22:46,2024-01-23 19:26:16,210.0,Tenerife,0.09421123781037771,19.78435994017932
2024-01-24 07:00:07,2024-01-24 07:04:24,257.0,Tenerife,0.0786393235641337,20.21030615598236
2024-01-24 19:06:49,2024-01-24 19:11:29,280.0,Tenerife,0.0443442137688363,12.416379855274162
2024-01-25 06:45:39,2024-01-25 06:48:06,147.0,Tenerife,0.09445798899003911,13.88532438153575
2024-01-25 18:51:18,2024-01-25 18:56:18,300.0,Tenerife,0.004695971703862428,1.4087915111587284
2024-01-26 08:04:20,2024-01-26 08:06:25,125.0,Tenerife,0.11559062803895878,14.448828504869848
2024-01-26 18:36:06,2024-01-26 18:40:50,284.0,Tenerife,0.037466425557420094,10.640464858307308
2024-01-27 07:48:02,2024-01-27 07:52:09,247.0,Tenerife,0.05481105311913007,13.53833012042513
2024-01-27 18:21:19,2024-01-27 18:25:00,221.0,Tenerife,0.07697187053044247,17.010783387227782
2024-01-28 07:32:19,2024-01-28 07:37:12,293.0,Tenerife,0.03111283714619945,9.116061283836439
2024-01-29 07:16:55,2024-01-29 07:21:53,298.0,Tenerife,0.014078514413120954,4.195397295110045
2024-01-29 19:24:40,2024-01-29 19:27:56,196.0,Tenerife,0.0815164117740546,15.977216707714703
2024-01-30 07:01:48,2024-01-30 07:06:13,265.0,Tenerife,0.09943441519838657,26.35012002757244
2024-01-30 19:08:35,2024-01-30 19:13:10,275.0,Tenerife,0.05433962976930934,14.943398186560069
2024-01-31 06:47:11,2024-01-31 06:49:59,168.0,Tenerife,0.12099180040939432,20.326622468778247
2024-01-31 18:52:59,2024-01-31 18:57:59,300.0,Tenerife,0.01073831752301731,3.221495256905193
2024-02-01 08:06:13,2024-02-01 08:07:49,96.0,Tenerife,0.08000211840823791,7.68020336719084
2024-02-01 18:37:42,2024-02-01 18:42:29,287.0,Tenerife,0.029878130992996285,8.575023594989934
2024-02-02 07:49:42,2024-02-02 07:53:41,239.0,Tenerife,0.08100032243461111,19.359077061872053
2024-02-02 18:22:48,2024-02-02 18:26:39,231.0,Tenerife,0.06999214335835648,16.168185115780346
2024-02-03 07:33:54,2024-02-03 07:38:44,290.0,Tenerife,0.047563301315449516,13.793357381480359
2024-02-04 07:18:25,2024-02-04 07:23:24,299.0,Tenerife,0.008787558538282959,2.6274800029466046
2024-02-04 19:26:16,2024-02-04 19:29:18,182.0,Tenerife,0.06445620113037014,11.731028605727364
2024-02-05 07:03:13,2024-02-05 07:07:43,270.0,Tenerife,0.053554431379909576,14.459696472575585
2024-02-05 19:10:04,2024-02-05 19:14:34,270.0,Tenerife,0.05926940954221393,16.002740576397763
2024-02-06 06:48:29,2024-02-06 06:51:31,182.0,Tenerife,0.07248904651924407,13.19300646650242
2024-02-06 18:54:22,2024-02-06 18:59:21,299.0,Tenerife,0.009614098738534091,2.8746155228216934
2024-02-07 08:07:52,2024-02-07 08:08:53,61.0,Tenerife,0.11192496808772816,6.827423053351418
2024-02-07 18:39:01,2024-02-07 18:43:50,289.0,Tenerife,0.030056245829205932,8.686255044640514
2024-02-08 07:51:04,2024-02-08 07:54:56,232.0,Tenerife,0.07816306890139711,18.13383198512413
2024-02-08 18:24:02,2024-02-08 18:28:00,238.0,Tenerife,0.08365583276447974,19.910088197946177
2024-02-09 07:35:11,2024-02-09 07:39:59,288.0,Tenerife,0.042779993551694144,12.320638142887915
2024-02-09 18:09:52,2024-02-09 18:11:23,91.0,Tenerife,0.1253287431453697,11.404915626228643
2024-02-10 07:19:38,2024-02-10 07:24:38,300.0,Tenerife,0.009471266455971218,2.8413799367913657
2024-02-10 19:27:34,2024-02-10 19:30:24,170.0,Tenerife,0.07045909328409806,11.978045858296671
2024-02-11 07:04:22,2024-02-11 07:08:56,274.0,Tenerife,0.059991382209719474,16.437638725463135
2024-02-11 19:11:15,2024-02-11 19:15:40,265.0,Tenerife,0.04843738574605997,12.835907222705892
2024-02-12 06:49:31,2024-02-12 06:52:44,193.0,Tenerife,0.04849196175230281,9.358948618194443
2024-02-12 18:55:28,2024-02-12 19:00:27,299.0,Tenerife,0.014042603398073176,4.19873841602388
2024-02-13 18:40:03,2024-02-13 18:44:54,291.0,Tenerife,0.018024163372073618,5.2450315412734225
2024-02-14 07:52:08,2024-02-14 07:55:54,226.0,Tenerife,0.07764163390042336,17.54700926149568
2024-02-14 18:24:59,2024-02-14 18:29:02,243.0,Tenerife,0.06654887482075993,16.17137658144466
2024-02-15 07:36:10,2024-02-15 07:40:56,286.0,Tenerife,0.05716176190215026,16.348263904014978
2024-02-15 18:10:39,2024-02-15 18:12:29,110.0,Tenerife,0.0794507572330538,8.739583295635917
2024-02-16 07:20:33,2024-02-16 07:25:34,301.0,Tenerife,0.004459926500195233,1.3424378765587652
2024-02-16 19:28:34,2024-02-16 19:31:13,159.0,Tenerife,0.09117809572727424,14.497317220636605
2024-02-17 07:05:13,2024-02-17 07:09:50,277.0,Tenerife,0.05851049132717221,16.207406097626702
2024-02-17 19:12:08,2024-02-17 19:16:30,262.0,Tenerife,0.05508258268488484,14.431636663439827
2024-02-18 06:50:17,2024-02-18 06:53:38,201.0,Tenerife,0.10683612178764064,21.47406047931577
2024-02-18 18:56:17,2024-02-18 19:01:14,297.0,Tenerife,0.019261568567402732,5.720685864518611
2024-02-19 18:40:48,2024-02-19 18:45:40,292.0,Tenerife,0.026548414142770784,7.75213692968907
2024-02-20 07:52:54,2024-02-20 07:56:35,221.0,Tenerife,0.12366886621353575,27.330819433191397
2024-02-20 18:25:40,2024-02-20 18:29:47,247.0,Tenerife,0.06379780552625157,15.758057964984138
2024-02-21 07:36:52,2024-02-21 07:41:36,284.0,Tenerife,0.07596344799548267,21.573619230717078
2024-02-21 18:11:13,2024-02-21 18:13:14,121.0,Tenerife,0.11083838970874606,13.411445154758274
2024-02-22 07:21:11,2024-02-22 07:26:12,301.0,Tenerife,0.004752613727335133,1.4305367319278752
2024-02-22 19:29:14,2024-02-22 19:31:45,151.0,Tenerife,0.06869109191891719,10.372354879756497
2024-02-23 07:05:48,2024-02-23 07:10:27,279.0,Tenerife,0.09630429452354458,26.86889817206894
2024-02-23 19:12:43,2024-02-23 19:17:02,259.0,Tenerife,0.0692125775244226,17.926057578825453
2024-02-24 06:50:48,2024-02-24 06:54:13,205.0,Tenerife,0.07589315139398807,15.558096035767555
2024-02-24 18:56:49,2024-02-24 19:01:45,296.0,Tenerife,0.027395247525849997,8.1089932676516
2024-02-25 18:41:16,2024-02-25 18:46:09,293.0,Tenerife,0.03203842209834859,9.387257674816137
2024-02-26 07:53:22,2024-02-26 07:57:00,218.0,Tenerife,0.05963770017349153,13.001018637821154
2024-02-26 18:26:04,2024-02-26 18:30:13,249.0,Tenerife,0.08090182186554214,20.14455364451999
2024-02-27 07:37:17,2024-02-27 07:41:59,282.0,Tenerife,0.051793298963928,14.605710307827696
2024-02-27 18:11:32,2024-02-27 18:13:40,128.0,Tenerife,0.07602769903898708,9.731545476990346
2024-02-28 07:21:32,2024-02-28 07:26:33,301.0,Tenerife,0.004758688348493441,1.4323651928965258
2024-02-28 19:29:36,2024-02-28 19:32:02,146.0,Tenerife,0.09591499715864824,14.003589585162644
2024-02-29 07:06:05,2024-02-29 07:10:45,280.0,Tenerife,0.056361511743487976,15.781223288176633
2024-02-29 19:13:00,2024-02-29 19:17:18,258.0,Tenerife,0.06788171569808199,17.513482650105153
2024-03-01 06:51:02,2024-03-01 06:54:29,207.0,Tenerife,0.05705104885582944,11.809567113156694
2024-03-01 18:57:02,2024-03-01 19:01:59,297.0,Tenerife,0.02567411194328787,7.625211247156498
2024-03-02 18:41:26,2024-03-02 18:46:20,294.0,Tenerife,0.02256707044815677,6.63471871175809
2024-03-03 07:53:32,2024-03-03 07:57:09,217.0,Tenerife,0.10347118037940005,22.45324614232981
2024-03-03 18:26:11,2024-03-03 18:30:21,250.0,Tenerife,0.12057179805890088,30.14294951472522
2024-03-04 07:37:23,2024-03-04 07:42:05,282.0,Tenerife,0.040477568852036946,11.414674416274417
2024-03-04 18:11:36,2024-03-04 18:13:46,130.0,Tenerife,0.052885817082961264,6.875156220784963
2024-03-05 07:21:36,2024-03-05 07:26:36,300.0,Tenerife,0.00457076148203676,1.3712284446110279
2024-03-05 19:29:38,2024-03-05 19:32:04,146.0,Tenerife,0.0825814621696959,12.0568934767756
2024-03-06 07:06:06,2024-03-06 07:10:46,280.0,Tenerife,0.05926297535180922,16.593633098506583
2024-03-06 19:12:59,2024-03-06 19:17:17,258.0,Tenerife,0.08014689640744758,20.67789927312148
2024-03-07 06:51:00,2024-03-07 06:54:27,207.0,Tenerife,0.07788292098587811,16.12176464407677
2024-03-07 18:56:58,2024-03-07 19:01:55,297.0,Tenerife,0.014827535826483822,4.403778140465695
2024-03-08 18:41:19,2024-03-08 18:46:13,294.0,Tenerife,0.02227084236443922,6.5476276551451305
2024-03-09 07:53:24,2024-03-09 07:57:01,217.0,Tenerife,0.07003793636998645,15.198232192287062
2024-03-09 18:26:02,2024-03-09 18:30:11,249.0,Tenerife,0.08622519000057832,21.470072310144005
2024-03-10 07:37:12,2024-03-10 07:41:54,282.0,Tenerife,0.05059323716053944,14.267292879272121
2024-03-10 18:11:24,2024-03-10 18:13:32,128.0,Tenerife,0.1390352426049026,17.796511053427533
2024-03-11 07:21:22,2024-03-11 07:26:22,300.0,Tenerife,0.005276793074032175,1.5830379222096524
2024-03-11 19:29:21,2024-03-11 19:31:50,149.0,Tenerife,0.0738669727794724,11.00617894414139
2024-03-12 07:05:49,2024-03-12 07:10:28,279.0,Tenerife,0.050178816310991595,13.999889750766656
2024-03-12 19:12:40,2024-03-12 19:16:59,259.0,Tenerife,0.06415376855501204,16.61582605574812
2024-03-13 06:50:41,2024-03-13 06:54:06,205.0,Tenerife,0.07135989987158663,14.628779473675257
2024-03-13 18:56:37,2024-03-13 19:01:34,297.0,Tenerife,0.015473885613605952,4.5957440272409675
2024-03-14 18:40:55,2024-03-14 18:45:48,293.0,Tenerife,0.029245101137375207,8.568814633250936
2024-03-15 07:52:57,2024-03-15 07:56:36,219.0,Tenerife,0.06825887842802311,14.948694375737063
2024-03-15 18:25:35,2024-03-15 18:29:43,248.0,Tenerife,0.09055742074303073,22.458240344271623
2024-03-16 07:36:43,2024-03-16 07:41:26,283.0,Tenerife,0.048038806025834914,13.59498210531128
2024-03-16 18:10:58,2024-03-16 18:12:59,121.0,Tenerife,0.11157605992104258,13.500703250446152
2024-03-17 07:20:50,2024-03-17 07:25:50,300.0,Tenerife,0.006675978678056652,2.0027936034169955
2024-03-17 19:28:45,2024-03-17 19:31:19,154.0,Tenerife,0.07328280898508625,11.285552583703282
2024-03-18 07:05:15,2024-03-18 07:09:53,278.0,Tenerife,0.07415879272627188,20.616144377903584
2024-03-18 19:12:03,2024-03-18 19:16:24,261.0,Tenerife,0.0632459379577681,16.507189806977475
2024-03-19 06:50:06,2024-03-19 06:53:26,200.0,Tenerife,0.10925114675397847,21.850229350795697
2024-03-19 18:55:57,2024-03-19 19:00:55,298.0,Tenerife,0.011121300378933137,3.3141475129220748
2024-03-20 18:40:14,2024-03-20 18:45:06,292.0,Tenerife,0.0331057077642255,9.666866667153847
2024-03-21 07:52:12,2024-03-21 07:55:55,223.0,Tenerife,0.07754360541690464,17.292224007969732
2024-03-21 18:24:52,2024-03-21 18:28:57,245.0,Tenerife,0.05971236639716755,14.62952976730605
2024-03-22 07:35:56,2024-03-22 07:40:41,285.0,Tenerife,0.054697408322899654,15.5887613720264
2024-03-22 18:10:16,2024-03-22 18:12:06,110.0,Tenerife,0.10312993462274592,11.34429280850205
2024-03-23 07:20:01,2024-03-23 07:25:01,300.0,Tenerife,0.007655462219901251,2.296638665970375
2024-03-23 19:27:50,2024-03-23 19:30:33,163.0,Tenerife,0.1037342705410134,16.908686098185186
2024-03-24 07:04:25,2024-03-24 07:08:59,274.0,Tenerife,0.049812951910113305,13.648748823371045
2024-03-24 19:11:08,2024-03-24 19:15:32,264.0,Tenerife,0.05577492029347381,14.724578957477085
2024-03-25 06:49:14,2024-03-25 06:52:27,193.0,Tenerife,0.09008585005412192,17.38656906044553
2024-03-25 18:55:00,2024-03-25 18:59:59,299.0,Tenerife,0.01005269087253404,3.0057545708876776
2024-03-26 18:39:15,2024-03-26 18:44:06,291.0,Tenerife,0.020326604988179127,5.9150420515601265
2024-03-27 07:51:08,2024-03-27 07:54:57,229.0,Tenerife,0.06414194929826152,14.688506389301887
2024-03-27 18:23:53,2024-03-27 18:27:53,240.0,Tenerife,0.11488470622236309,27.572329493367143
2024-03-28 07:34:51,2024-03-28 07:39:38,287.0,Tenerife,0.05052341140377919,14.500219072884626
2024-03-28 18:09:21,2024-03-28 18:10:52,91.0,Tenerife,0.09339607280809774,8.499042625536894
2024-03-29 07:18:55,2024-03-29 07:23:54,299.0,Tenerife,0.007943536280572917,2.375117347891302
2024-03-29 19:26:36,2024-03-29 19:29:30,174.0,Tenerife,0.13544866274015518,23.568067316787
2024-03-30 07:03:17,2024-03-30 07:07:48,271.0,Tenerife,0.03438048882109396,9.317112470516463
2024-03-30 19:09:54,2024-03-30 19:14:23,269.0,Tenerife,0.051828057550378726,13.941747481051877
2024-03-31 06:48:07,2024-03-31 06:51:09,182.0,Tenerife,0.14443201912271258,26.286627480333692
2024-03-31 18:53:46,2024-03-31 18:58:45,299.0,Tenerife,0.01008360150500899,3.014996849997688
2024-04-01 08:06:59,2024-04-01 08:08:06,67.0,Tenerife,0.07913575596165923,5.302095649431168
2024-04-01 18:38:00,2024-04-01 18:42:48,288.0,Tenerife,0.030552943358737216,8.799247687316319
2024-04-02 07:49:47,2024-04-02 07:53:42,235.0,Tenerife,0.05912623252958643,13.894664644452812
2024-04-02 18:22:37,2024-04-02 18:26:30,233.0,Tenerife,0.06043921279919323,14.082336582212022
2024-04-03 07:33:29,2024-04-03 07:38:18,289.0,Tenerife,0.029207182029658524,8.440875606571312
2024-04-04 07:17:31,2024-04-04 07:22:29,298.0,Tenerife,0.0183473777772887,5.467518577632033
2024-04-04 19:25:03,2024-04-04 19:28:11,188.0,Tenerife,0.08919699371284186,16.76903481801427
2024-04-05 07:01:52,2024-04-05 07:06:18,266.0,Tenerife,0.09806749787791902,26.08595443552646
2024-04-05 19:08:23,2024-04-05 19:12:57,274.0,Tenerife,0.05808072366824103,15.914118285098043
2024-04-06 06:46:44,2024-04-06 06:49:31,167.0,Tenerife,0.08060576975397533,13.46116354891388
2024-04-06 18:52:14,2024-04-06 18:57:14,300.0,Tenerife,0.014163437320265758,4.249031196079727
2024-04-07 08:05:10,2024-04-07 08:06:50,100.0,Tenerife,0.09332008134956697,9.332008134956698
2024-04-07 18:36:27,2024-04-07 18:41:13,286.0,Tenerife,0.03758696102615225,10.749870853479543
2024-04-08 07:48:07,2024-04-08 07:52:10,243.0,Tenerife,0.04573996520822755,11.114811545599293
2024-04-08 18:21:04,2024-04-08 18:24:49,225.0,Tenerife,0.11487981785501422,25.8479590173782
2024-04-09 07:31:49,2024-04-09 07:36:40,291.0,Tenerife,0.02649294427905076,7.709446785203772
2024-04-10 07:15:50,2024-04-10 07:20:47,297.0,Tenerife,0.022358461260916188,6.6404629944921085
2024-04-10 19:23:13,2024-04-10 19:26:34,201.0,Tenerife,0.10691641332215852,21.490199077753864
2024-04-11 07:00:10,2024-04-11 07:04:29,259.0,Tenerife,0.0635246626487516,16.452887626026666
2024-04-11 19:06:34,2024-04-11 19:11:13,279.0,Tenerife,0.04366490704680896,12.182509066059701
2024-04-12 06:45:05,2024-04-12 06:47:33,148.0,Tenerife,0.09187296543131722,13.597198883834949
2024-04-12 18:50:25,2024-04-12 18:55:25,300.0,Tenerife,0.005122047463850525,1.5366142391551576
2024-04-13 08:03:05,2024-04-13 08:05:14,129.0,Tenerife,0.06387425793276692,8.239779273326933
2024-04-13 18:34:37,2024-04-13 18:39:19,282.0,Tenerife,0.030169681842579357,8.507850279607378
2024-04-14 07:46:10,2024-04-14 07:50:20,250.0,Tenerife,0.06751129757187803,16.877824392969508
2024-04-14 18:19:16,2024-04-14 18:22:48,212.0,Tenerife,0.06981863016172755,14.80154959428624
2024-04-15 07:29:51,2024-04-15 07:34:45,294.0,Tenerife,0.019572979757838706,5.75445604880458
2024-04-16 07:13:51,2024-04-16 07:18:46,295.0,Tenerife,0.02514229590965486,7.416977293348183
2024-04-16 19:21:05,2024-04-16 19:24:40,215.0,Tenerife,0.08684919957721736,18.67257790910173
2024-04-17 06:58:12,2024-04-17 07:02:22,250.0,Tenerife,0.05452638493875048,13.631596234687619
2024-04-17 19:04:28,2024-04-17 19:09:11,283.0,Tenerife,0.033840186908410425,9.576772895080149
2024-04-18 06:43:14,2024-04-18 06:45:13,119.0,Tenerife,0.09710000877227254,11.554901043900433
2024-04-18 18:48:19,2024-04-18 18:53:18,299.0,Tenerife,0.007455254455180019,2.229121082098826
2024-04-19 08:00:45,2024-04-19 08:03:19,154.0,Tenerife,0.10543899396437736,16.237605070514114
2024-04-19 18:32:31,2024-04-19 18:37:06,275.0,Tenerife,0.06671598987561715,18.346897215794716
2024-04-20 07:43:54,2024-04-20 07:48:13,259.0,Tenerife,0.07247966432177204,18.77223305933896
2024-04-20 18:17:12,2024-04-20 18:20:28,196.0,Tenerife,0.07086972997368615,13.890467074842487
2024-04-21 07:27:36,2024-04-21 07:32:32,296.0,Tenerife,0.01376247340174571,4.073692126916731
2024-04-22 07:11:36,2024-04-22 07:16:27,291.0,Tenerife,0.02989733271791104,8.700123820912111
2024-04-22 19:18:39,2024-04-22 19:22:28,229.0,Tenerife,0.09925562014712104,22.72953701369072
2024-04-23 06:55:57,2024-04-23 06:59:56,239.0,Tenerife,0.09728963245123033,23.25222215584405
2024-04-23 19:02:04,2024-04-23 19:06:52,288.0,Tenerife,0.034099407417816315,9.820629336331097
2024-04-24 06:41:16,2024-04-24 06:42:24,68.0,Tenerife,0.11138173475947782,7.573957963644492
2024-04-24 18:45:55,2024-04-24 18:50:53,298.0,Tenerife,0.010825617217380748,3.226033930779463
2024-04-25 07:58:07,2024-04-25 08:01:05,178.0,Tenerife,0.09419338231484468,16.76642205204235
2024-04-25 18:30:08,2024-04-25 18:34:35,267.0,Tenerife,0.052195734282849286,13.93626105352076
2024-04-26 07:41:21,2024-04-26 07:45:49,268.0,Tenerife,0.07735763108396577,20.73184513050283
2024-04-26 18:14:53,2024-04-26 18:17:48,175.0,Tenerife,0.06242690647911925,10.924708633845869
2024-04-27 07:25:03,2024-04-27 07:30:01,298.0,Tenerife,0.00840983177512796,2.506129868988132
2024-04-27 19:33:24,2024-04-27 19:34:47,83.0,Tenerife,0.10503355625372618,8.717785169059272
2024-04-28 07:09:03,2024-04-28 07:13:49,286.0,Tenerife,0.052695160447806935,15.070815888072783
2024-04-28 19:15:55,2024-04-28 19:19:58,243.0,Tenerife,0.08053218860116032,19.569321830081957
2024-04-29 06:53:26,2024-04-29 06:57:11,225.0,Tenerife,0.06970882545948677,15.684485728384523
2024-04-29 18:59:22,2024-04-29 19:04:15,293.0,Tenerife,0.01926922121829742,5.645881816961144
2024-04-30 18:43:14,2024-04-30 18:48:10,296.0,Tenerife,0.013790034178262094,4.08185011676558
2024-05-01 07:55:13,2024-05-01 07:58:33,200.0,Tenerife,0.08908318936257821,17.816637872515646
2024-05-01 18:27:28,2024-05-01 18:31:45,257.0,Tenerife,0.0633383319264061,16.27795130508637
2024-05-02 07:38:31,2024-05-02 07:43:07,276.0,Tenerife,0.07209857055542641,19.89920547329769
2024-05-02 18:12:20,2024-05-02 18:14:46,146.0,Tenerife,0.06148041239783564,8.976140210084003
2024-05-03 07:22:13,2024-05-03 07:27:11,298.0,Tenerife,0.004824166622197501,1.4376016534148555
2024-05-03 19:30:07,2024-05-03 19:32:20,133.0,Tenerife,0.06318298009424661,8.403336352534799
2024-05-04 07:06:13,2024-05-04 07:10:53,280.0,Tenerife,0.060113555894416686,16.83179565043667
2024-05-04 19:12:54,2024-05-04 19:17:10,256.0,Tenerife,0.07634894004805634,19.545328652302423
2024-05-05 06:50:39,2024-05-05 06:54:05,206.0,Tenerife,0.06339020570509396,13.058382375249355
2024-05-05 18:56:23,2024-05-05 19:01:20,297.0,Tenerife,0.013165826742244346,3.9102505424465708
2024-05-06 18:40:16,2024-05-06 18:45:08,292.0,Tenerife,0.019561923791342698,5.712081747072069
2024-05-07 07:52:02,2024-05-07 07:55:42,220.0,Tenerife,0.06867198813397131,15.107837389473687
2024-05-07 18:24:33,2024-05-07 18:28:36,243.0,Tenerife,0.05501866154377725,13.36953475513787
2024-05-08 07:35:23,2024-05-08 07:40:07,284.0,Tenerife,0.027814601937664846,7.899346950296817
2024-05-08 18:09:38,2024-05-08 18:11:18,100.0,Tenerife,0.10742026176248518,10.742026176248517
2024-05-09 07:19:05,2024-05-09 07:24:04,299.0,Tenerife,0.007442347952401833,2.225262037768148
2024-05-09 19:26:39,2024-05-09 19:29:29,170.0,Tenerife,0.085168003238207,14.478560550495189
2024-05-10 07:03:07,2024-05-10 07:07:38,271.0,Tenerife,0.05227002321824521,14.165176292144453
2024-05-10 19:09:36,2024-05-10 19:14:03,267.0,Tenerife,0.057043315665547205,15.230565282701106
